,StopPointCode,StopPointAuthority,StopPointShortName,StopPointPublicCode,StopPointStopType,StopPointLatitude,StopPointLongitude,passengers
1,1248911,AVL,\(131) Bouillon Quai 1,BOUI911,busStation,49.6000291231014,6.10703738843106,335
2,1221191,AVL,"Beggen, Kierch Quai 2",BEGG191,busStation,49.6432045946629,6.12948430461396,251
3,2450901,AVL,F. D. Roosevelt Quai 1,ROOS901,busStation,49.6093347766247,6.13064467296196,223
4,1450028,AVL,Crispinus Quai 1,EICH028,busStation,49.6200888259289,6.13041429922841,799
5,1741035,AVL,Fonderie Quai 1,HOLL035,busStation,49.5985566213101,6.12628095046011,380
6,1248912,AVL,"Hollerich, Kierfecht Quai 1",BOUI912,busStation,49.5996317639285,6.11165633813028,47
7,1413903,AVL,Eecher Plaz Quai 3,DARG903,busStation,49.6274037342869,6.12972115048324,116
8,7307046,AVL,"Steinsel, Gonneschhaff Quai 2",BASS046,busStation,49.6716005162144,6.12020187301094,755
9,1741095,AVL,Jean-Baptiste Merkels Quai 1,HOLL127,busStation,49.5988970358075,6.12007382479602,298
10,2146063,AVL,Marcel Cahen Quai 1,MERL063,busStation,49.6016904551623,6.10152670463627,516
11,1616912,AVL,Gare Centrale Quai 1,GARE912,busStation,49.5999846914848,6.1334361633968,489
12,1611027,AVL,Al Avenue Quai 1,GARE901,busStation,49.6035137995667,6.1331737217192,824
13,7320014,AVL,"Steinsel, Buergaass",FORE014,busStation,49.6774805504822,6.12186460316309,79
14,2449901,AVL,Hamilius Quai 1,ROYA901,busStation,49.6113360354928,6.12609672688911,310
15,1450027,AVL,Crispinus Quai 2,EICH027,busStation,49.6194175401104,6.13019065516768,566
16,1212901,AVL,Badanstalt Quai 1,BAIN901,busStation,49.6135129211258,6.12934693429989,920
17,1450036,AVL,Octroi Quai 1,EICH036,busStation,49.6225447114061,6.13040842999102,805
18,1616933,AVL,Gare Centrale Quai 2,GARE933,busStation,49.5996213202218,6.13293150176439,43
19,1413901,AVL,Eecher Plaz Quai 1,DARG901,busStation,49.6278113532906,6.13019576643593,432
20,1460066,AVL,Eecher Klinick Quai 1,EICH066,busStation,49.6314760732909,6.13431552844128,192
21,1220050,AVL,Émile Metz Quai 1,BEGG050,busStation,49.6352777492806,6.13416154061269,293
22,1220052,AVL,Henri Heymanns Quai 1,BEGG052,busStation,49.6381141007267,6.13208330727882,16
23,1471112,AVL,Salzhaff / Schluechthaus Quai 3,ESCH112,busStation,49.6000149726609,6.11764099576529,119
24,1220088,AVL,Binnchen Quai 1,BEGG088,busStation,49.6418559475819,6.13024248233656,356
25,7254068,AVL,"Bereldange, Elterstrachen Quai 1",STEI068,busStation,49.6609884221436,6.12577643917011,607
26,1220130,AVL,"Beggen, Kierch Quai 1",BEGG130,busStation,49.6435283370976,6.12947910932524,146
27,7307084,AVL,"Steinsel, Laval Quai 2",BASS084,busStation,49.6693464747018,6.11964198607504,497
28,1220170,AVL,Bastogne Quai 1,BEGG170,busStation,49.6457691273996,6.12841898519905,64
29,7241117,AVL,"Bereldange, Rue du Pont Quai 1",LUXE117,busStation,49.6495052010458,6.12779721076683,943
30,7240091,AVL,"Bereldange, Schoul Quai 1",LUXE091,busStation,49.6531323866741,6.12750044936484,268
31,1221147,AVL,Binnchen Quai 2,BEGG147,busStation,49.6413190072463,6.13035718642754,112
32,7240037,AVL,"Bereldange, Police Quai 1",LUXE037,busStation,49.6560498902167,6.12724544273449,668
33,8069018,AVL,"Bertrange, Spatzwiss Quai 1",INDU018,busStation,49.6106675911424,6.0689847776041,315
34,7307085,AVL,"Steinsel, Laval Quai 1",BASS085,busStation,49.6697987353007,6.11974001229657,180
35,7307069,AVL,"Steinsel, Gonneschhaff Quai 1",BASS069,busStation,49.6716758266979,6.12033604374146,660
36,1450031,AVL,Octroi Quai 2,EICH031,busStation,49.6229285941451,6.13028892828534,190
37,7307013,AVL,"Steinsel, Um Gruef Quai 1",BASS013,busStation,49.6754972971933,6.12242536656908,396
38,1741034,AVL,Fonderie Quai 2,HOLL034,busStation,49.5985706424762,6.12720749279286,384
39,1461103,AVL,Eecher Klinick Quai 2,EICH103,busStation,49.6319362045588,6.13473173478593,904
40,8081405,AVL,"Bertrange, Belle Étoile Quai 1",ARLO405,busStation,49.6217146106679,6.04843587212168,266
41,8069004,AVL,"Bertrange, Gare Bertrange Strassen Quai 1",INDU004,busStation,49.6129786194576,6.06078799011087,246
42,8069032,AVL,"Strassen, Les Thermes Quai 1",INDU032,busStation,49.6121933706632,6.07559431717212,530
43,8070011,AVL,"Strassen, Bourmicht Quai 1",MERO011,busStation,49.6106313273274,6.07928750234877,170
44,7240024,AVL,"Bereldange, Police Quai 2",LUXE024,busStation,49.6562986731386,6.12711992441878,728
45,8070018,AVL,"Bertrange, Atrium Quai 1",PUIT018,busStation,49.6085382034252,6.07905271851239,210
46,1941483,AVL,Op der Millen Quai 1,LONG483,busStation,49.6033960462418,6.08491113230613,690
47,1941411,AVL,Plak Quai 1,LONG411,busStation,49.6030015449753,6.08889366544784,499
48,2146141,AVL,St Gengoul Quai 1,MERL141,busStation,49.6026489305579,6.0945485840859,701
49,7317910,AVL,"Steinsel, Michel Rodange Plaz Quai 1",EYSC910,busStation,49.6770688010716,6.12448142114959,936
50,7307012,AVL,"Steinsel, Um Gruef Quai 2",BASS012,busStation,49.6751221004343,6.12217026155001,200
51,7254073,AVL,"Bereldange, Elterstrachen Quai 2",STEI073,busStation,49.6608905920171,6.12618411780559,181
52,7240098,AVL,"Bereldange, Schoul Quai 2",LUXE098,busStation,49.6534340391464,6.12733025557766,165
53,1611902,AVL,Al Avenue Quai 2,GARE902,busStation,49.6025560771066,6.13300844269712,74
54,1221309,AVL,"Beggen, Rue du Pont Quai 2",BEGG309,busStation,49.6489990455474,6.12770231642376,954
55,2449902,AVL,Hamilius Quai 2,ROYA902,busStation,49.6109542699635,6.12593920850378,125
56,1221233,AVL,Bastogne Quai 2,BEGG233,busStation,49.6458627926465,6.12820565042527,92
57,2147001,AVL,Jean-Baptiste Merkels Quai 2,MERK001,busStation,49.5994848457059,6.12236456153247,690
58,1221091,AVL,Henri Heymanns Quai 2,BEGG091,busStation,49.6378629101266,6.13211192373546,897
59,1221035,AVL,Émile Metz Quai 2,BEGG035,busStation,49.6349653875135,6.13426299452567,344
60,1248922,AVL,"Hollerich, Kierfecht Quai 2",BOUI922,busStation,49.599611016313,6.11226659598475,821
61,1212902,AVL,Badanstalt Quai 2,BAIN902,busStation,49.6135433644822,6.12912361612882,846
62,2450902,AVL,F. D. Roosevelt Quai 2,ROOS902,busStation,49.6080148979319,6.13256345549772,309
63,1248921,AVL,\(131) Bouillon Quai 2,BOUI921,busStation,49.600104094558,6.10679763919739,968
64,2146072,AVL,Marcel Cahen Quai 2,MERL072,busStation,49.6019105070704,6.10097380000071,94
65,2146150,AVL,St Gengoul Quai 2,MERL150,busStation,49.6026941932611,6.09455973473881,408
66,1940444,AVL,Plak Quai 2,LONG444,busStation,49.6030938107119,6.08898506600106,218
67,1941486,AVL,Op der Millen Quai 2,LONG486,busStation,49.603503842474,6.08490469993145,498
68,8070023,AVL,"Strassen, Atrium Quai 2",PUIT023,busStation,49.6083533075312,6.07885611318039,811
69,8070012,AVL,"Strassen, Bourmicht Quai 2",MERO012,busStation,49.6109105118565,6.08072451993375,783
70,8069031,AVL,"Strassen, Les Thermes Quai 2",INDU031,busStation,49.6123098604373,6.07699956173323,186
71,8069017,AVL,"Bertrange, Spatzwiss Quai 2",INDU017,busStation,49.6106970903015,6.06837383373893,251
72,8069003,AVL,"Bertrange, Gare Bertrange Strassen Quai 2",INDU003,busStation,49.6130492273587,6.06108834224274,5
73,8080300,AVL,"Bertrange, Belle Étoile Quai 2",ARLO300,busStation,49.6219101399716,6.04904721405014,130
1,7228024,AVL,"Helmsange, Helsemer Barriär Quai 2",GARE024,busStation,49.6598818497627,6.13557048834497,870
4,2163045,AVL,Wampach Quai 1,MONT045,busStation,49.6098347301792,6.12107644478883,669
6,1479901,AVL,Stäreplaz / Étoile Quai 1,ARLO901,busStation,49.6133048576762,6.11916888852826,408
7,7220010,AVL,"Walferdange, Gemenge Plaz Quai 1",DIEK010,busStation,49.6591380915809,6.13133190913541,339
10,8268006,AVL,"Bertrange, École Européenne II Quai 6",THOR006,busStation,49.617470009397,6.03794732748527,608
12,1140073,AVL,Nicolas Simmer Quai 1,ARLO073,busStation,49.6141755306175,6.11367614829,756
24,7228023,AVL,"Helmsange, Helsemer Barriär Quai 1",GARE023,busStation,49.6599291646263,6.13566471957518,904
25,7228019,AVL,"Walferdange, Gare Quai 1",GARE019,busStation,49.6614959565945,6.13608545777653,256
26,7220040,AVL,"Helmsange, Tricentenaire Quai 1",DIEK040,busStation,49.6622455803607,6.13329726535181,649
27,7220092,AVL,"Helmsange, Mercatoris Quai 1",DIEK092,busStation,49.6652713772331,6.13414498512975,764
28,7330085,AVL,"Heisdorf, Millewee Quai 1",LUXE085,busStation,49.6687880934152,6.13519958665667,951
29,1140197,AVL,Rue d'Ostende Quai 1,ARLO197,busStation,49.614838637605,6.10852780152297,935
30,7330067,AVL,"Heisdorf, Bei der Parkmauer Quai 1",LUXE067,busStation,49.671018548885,6.13590019233024,828
31,7330029,AVL,"Heisdorf, Klouschter Quai 1",LUXE029,busStation,49.6743088764792,6.13725944688657,300
32,8009119,AVL,"Strassen, Aurélia Quai 1",ARLO119,busStation,49.6188561699443,6.0811495412159,520
33,7329028,AVL,"Heisdorf, Altersheem Quai 1",MULL028,busStation,49.6759466907352,6.13509760015452,24
34,7317041,AVL,"Müllendorf, Mëlleref Quai 1",EYSC041,busStation,49.678789603808,6.12856682355927,841
36,7330034,AVL,"Heisdorf, Klouschter Quai 2",LUXE034,busStation,49.6745890718767,6.13731230090693,303
39,8011305,AVL,"Strassen, Geesseneck Quai 1",ARLO305,busStation,49.621605876677,6.06183343988462,906
40,7327028,AVL,"Steinsel, Kennedy Quai 1",KENN028,busStation,49.6705275959889,6.12517233249346,286
41,7333062,AVL,"Steinsel, Industriezon",PRES062,busStation,49.6695673786741,6.12563095343015,659
43,8011345,AVL,"Strassen, Schoenacht Quai 1",ARLO345,busStation,49.6220846683686,6.05766404105226,293
45,8009155,AVL,"Strassen, Benelux Quai 1",ARLO155,busStation,49.6195324895288,6.07658102862774,484
46,8011261,AVL,"Strassen, Kesseler Quai 1",ARLO261,busStation,49.6209433380012,6.06656770736254,427
47,8011203,AVL,"Strassen, Barblé Quai 1",ARLO203,busStation,49.6202120089683,6.071790633238,225
48,8009061,AVL,"Strassen, Hondseck Quai 1",ARLO061,busStation,49.6179654759234,6.08757235392053,521
49,8009023,AVL,"Strassen, Huorgarten Quai 1",ARLO023,busStation,49.6173239535887,6.09211079349693,994
50,7317054,AVL,"Müllendorf, Mëlleref Quai 2",EYSC054,busStation,49.6790878974477,6.1300743038702,686
51,1150247,AVL,Wandmillen Quai 1,ARLO247,busStation,49.6157443846535,6.10301876210726,277
52,7327029,AVL,"Steinsel, Kennedy Quai 2",KENN029,busStation,49.6705431960327,6.12471397433497,400
55,7317911,AVL,"Steinsel, Michel Rodange Plaz Quai 2",EYSC911,busStation,49.6769198704166,6.12464270943722,327
56,7329007,AVL,"Heisdorf, Altersheem Quai 2",MULL007,busStation,49.6757943173031,6.13512042192373,866
57,7330048,AVL,"Heisdorf, Bei der Parkmauer Quai 2",LUXE048,busStation,49.6710790337134,6.13579960461144,606
59,7330086,AVL,"Heisdorf, Millewee Quai 2",LUXE086,busStation,49.6687756830753,6.13506170376012,507
60,7220109,AVL,"Helmsange, Mercatoris Quai 2",DIEK109,busStation,49.6661834910039,6.13428540677002,963
61,7228020,AVL,"Walferdange, Gare Quai 2",GARE020,busStation,49.6615447181282,6.13587470577299,315
62,7220003,AVL,"Walferdange, Gemenge Plaz Quai 2",DIEK003,busStation,49.6591506895898,6.13038878980486,693
72,1479902,AVL,Stäreplaz / Étoile Quai 2,ARLO902,busStation,49.6136432086386,6.11794436270911,78
73,1140034,AVL,Nicolas Simmer Quai 2,ARLO034,busStation,49.6143203102899,6.11334913793103,133
74,1140060,AVL,Rue d'Ostende Quai 2,ARLO060,busStation,49.6150134654149,6.10868360169839,766
75,1150106,AVL,Wandmillen Quai 2,ARLO106,busStation,49.6159588988377,6.10224449036908,338
76,8008020,AVL,"Strassen, Huorgarten Quai 2",ARLO020,busStation,49.6174134365562,6.09209161777162,119
77,8008048,AVL,"Strassen, Hondseck Quai 2",ARLO048,busStation,49.6180711833372,6.08748296724584,374
78,8008102,AVL,"Strassen, Aurélia Quai 2",ARLO102,busStation,49.6191109126903,6.08019270143705,428
79,8008128,AVL,"Strassen, Benelux Quai 2",ARLO128,busStation,49.6197240689636,6.07597411923315,989
80,8010168,AVL,"Strassen, Barblé Quai 2",ARLO168,busStation,49.6206496916383,6.06953490673999,580
81,8010194,AVL,"Strassen, Kesseler Quai 2",ARLO194,busStation,49.6210652405508,6.06640805701645,549
82,8010224,AVL,"Strassen, Geesseneck Quai 2",ARLO224,busStation,49.6216592195228,6.06216258100498,912
83,8010258,AVL,"Strassen, Schoenacht Quai 2",ARLO258,busStation,49.6222042581185,6.05776761847694,384
85,8268002,AVL,"Bertrange, Gaston Thorn / LJBM",THOR002,busStation,49.6210130880358,6.03683225623981,55
1,1126904,AVL,"Belair, Kierch Quai 3",AMST904,busStation,49.6106517689219,6.10766810105707,427
3,2721012,AVL,Alphonse Weicker Quai 1,WEIC012,busStation,49.6322613003208,6.16986601233203,128
4,1935023,AVL,Celtes,LIGU023,busStation,49.6014414629848,6.09518792160396,134
5,1215077,AVL,Barrière Quai 1,BARR077,busStation,49.6017792398593,6.09717496717478,118
6,1635095,AVL,Amsterdam Quai 1,GOEB095,busStation,49.6122034520038,6.10855921571296,481
8,2134033,AVL,Conservatoire Quai 1,MART033,busStation,49.6023301822657,6.10587679452934,161
9,1430031,AVL,Athénée Quai 1,DUPO023,busStation,49.6052663290246,6.11104633300297,842
10,2670032,AVL,Place de Liège Quai 1,VERD032,busStation,49.6086917048604,6.10771494873192,205
11,1635037,AVL,Archiducs Quai 1,GOEB037,busStation,49.6126722615565,6.11256045074023,668
12,1371013,AVL,Square de New York Quai 1,CROI013,busStation,49.6131624299856,6.11525902594974,894
14,2163043,AVL,Monterey Quai 3,MONT043,busStation,49.6102044779639,6.12364359196666,591
15,2134054,AVL,Conservatoire Quai 2,MART054,busStation,49.6022959692474,6.10558813097492,429
16,1855006,AVL,Rout Bréck - Pafendall Quai 1,KENN006,busStation,49.6182754777259,6.13601808040581,487
17,1724005,AVL,Amélie,HENR005,busStation,49.6135947821674,6.12503615314638,495
18,2227901,AVL,Fondation Pescatore Quai 1,NEUV901,busStation,49.6156554848384,6.12686713946269,545
19,2226002,AVL,Philharmonie / MUDAM Quai 1,NIED002,busStation,49.6198572503834,6.14140883540122,636
20,1615004,AVL,Niedergrünewald Quai 1,GASP004,busStation,49.6223470198693,6.14605446892399,507
21,1468901,AVL,Léon Hengen Quai 1,ERAS901,busStation,49.6235993087502,6.14977571215877,74
22,2167012,AVL,Bleuets Quai 1,MUGU012,busStation,49.6205202600172,6.15406816269419,639
23,2167040,AVL,Pâquerettes Quai 1,MUGU040,busStation,49.6225947773506,6.15904332016917,762
24,2167078,AVL,Marguerites Quai 1,MUGU078,busStation,49.6238508594297,6.16110287982996,73
25,2167124,AVL,Muguets Quai 1,MUGU124,busStation,49.6266937897648,6.16403976974527,45
26,1857108,AVL,Labours Quai 1,KIEM108,busStation,49.6292362674222,6.16793622771969,255
27,1912026,AVL,Rehazenter Quai 1,LABO026,busStation,49.6290617446473,6.17514828467296,186
28,2720011,AVL,Pierre Werner Quai 1,WERN011,busStation,49.6326442477532,6.17780806164269,23
29,1635042,AVL,Archiducs Quai 2,GOEB042,busStation,49.6126691647041,6.11207604741123,12
30,2540012,AVL,Hôpital Kirchberg Quai 2,STEI012,busStation,49.6322404819401,6.17453492865759,580
31,1855009,AVL,Rout Bréck - Pafendall Quai 2,KENN009,busStation,49.6184234838331,6.13545552256772,618
32,2721011,AVL,Alphonse Weicker Quai 2,WEIC011,busStation,49.6323521518607,6.16990229635365,451
33,1430018,AVL,Athénée Quai 2,DUPO018,busStation,49.6053330157307,6.11083474047343,472
34,1857109,AVL,Labours Quai 2,KIEM109,busStation,49.6291133854129,6.16769405959043,489
35,2721005,AVL,Chambre des Métiers Quai 1,WEIC005,busStation,49.6336985811776,6.16794045444102,787
36,2167027,AVL,Bleuets Quai 2,MUGU027,busStation,49.6205811035661,6.15398153123777,568
37,2721006,AVL,Chambre des Métiers Quai 2,WEIC006,busStation,49.63366959863,6.1678590292374,238
38,2540009,AVL,Hôpital Kirchberg Quai 3,STEI009,busStation,49.6325072249592,6.17514277376167,407
39,2720010,AVL,Pierre Werner Quai 2,WERN010,busStation,49.6319118436644,6.17765650396441,75
40,1912025,AVL,Rehazenter Quai 2,LABO025,busStation,49.6290770752246,6.174302555657,284
41,2167149,AVL,Muguets Quai 2,MUGU149,busStation,49.6263951252934,6.16360010000648,360
42,2167105,AVL,Marguerites Quai 2,MUGU105,busStation,49.6235470928683,6.16045582471149,323
43,2226001,AVL,Philharmonie / MUDAM Quai 2,NIED001,busStation,49.619973693406,6.14138817062622,737
44,2167075,AVL,Pâquerettes Quai 2,MUGU075,busStation,49.6224088052073,6.15843098194629,217
45,1615903,AVL,Léon Hengen Quai 2,GASP903,busStation,49.623659713649,6.14894128300639,370
46,2226007,AVL,Niedergrünewald Quai 2,NIED007,busStation,49.6215829536007,6.14425737647978,607
47,2227902,AVL,Fondation Pescatore Quai 2,NEUV902,busStation,49.615729809492,6.12659968925657,943
49,1479912,AVL,Stäreplaz / Étoile Quai 4,ARLO912,busStation,49.6135581704657,6.11850320396371,223
50,1635106,AVL,Amsterdam Quai 2,GOEB106,busStation,49.6122003342252,6.10771484300449,820
51,1370014,AVL,Square de New York Quai 2,CROI014,busStation,49.613217363842,6.11529731745191,833
52,1126903,AVL,"Belair, Kierch Quai 4",AMST903,busStation,49.6108455963657,6.107504329526,862
53,2670027,AVL,Place de Liège Quai 2,VERD027,busStation,49.6083655485178,6.10798345593793,585
55,2146120,AVL,Barrière Quai 2,MERL120,busStation,49.6022816366424,6.09747733386373,669
1,1617081,AVL,Klensch Quai 1,GASP081,busStation,49.5929553179912,6.11991190790157,903
2,1122018,AVL,Alsace Quai 2,ALSA018,busStation,49.5965445625711,6.13111896443616,163
3,1870097,AVL,Tubishaff Quai 1,KOHL097,busStation,49.585753403856,6.10674763402249,541
4,1420176,AVL,Oradour Quai 1,DIDE176,busStation,49.6096427657857,6.10365757533249,731
5,1617053,AVL,Al Gaasperech Quai 1,GASP053,busStation,49.5920194835593,6.12171082786917,625
6,1617013,AVL,Bei der Auer Quai 1,GASP013,busStation,49.5912244075951,6.12482995845063,457
7,1870049,AVL,Kuelebierg Quai 1,KOHL049,busStation,49.5883177344867,6.11143929783855,414
8,1415057,AVL,Déportation Quai 1,DEPO057,busStation,49.5938529420828,6.12778930817769,289
9,1540036,AVL,Clemenceau,FRAN036,busStation,49.5898508774609,6.12784458779993,87
10,1420902,AVL,"Belair, Kierch Quai 2",DIDE902,busStation,49.6103477271302,6.10810144655759,131
11,2711009,AVL,Richard Wagner,WAGN009,busStation,49.5892208768167,6.12421436605709,233
12,1224032,AVL,Louis de Froment Quai 2,BEET032,busStation,49.5899250697588,6.11744724849756,88
13,1420179,AVL,Oradour Quai 2,DIDE179,busStation,49.6095270395722,6.1040659269785,695
14,1122023,AVL,Alsace Quai 1,ALSA023,busStation,49.5965106858641,6.13120399755592,301
15,2155129,AVL,Millewee Quai 1,MUHL129,busStation,49.592222205726,6.12733156614244,717
19,1870169,AVL,Antoine Quai 1,KOHL169,busStation,49.5839126100647,6.10006251983774,247
20,2163902,AVL,Monterey Quai 2,MONT902,busStation,49.6104348113069,6.12458530939321,682
21,1617060,AVL,Al Gaasperech Quai 2,GASP060,busStation,49.5925029435724,6.12089349852768,842
22,2163038,AVL,Wampach Quai 2,MONT038,busStation,49.6099304496015,6.12094620196232,638
23,1870903,AVL,Rue de Leudelange Quai 2,KOHL903,busStation,49.5821586135001,6.09756526191082,959
24,1420052,AVL,Sacré-Coeur Quai 1,DIDE052,busStation,49.6103207147168,6.11314250337976,524
25,1420901,AVL,"Belair, Kierch Quai 1",DIDE901,busStation,49.6104541458921,6.10839972895483,34
26,1420266,AVL,"Merl, Kierfecht Quai 1",DIDE266,busStation,49.6098981674438,6.09948906156089,586
27,1145110,AVL,Val Ste Croix Quai 1,AUBE110,busStation,49.6124972433819,6.09765941919409,966
28,1145160,AVL,Aubépines Quai 1,AUBE160,busStation,49.6153829727149,6.09829098398315,339
29,1512004,AVL,Kannerklinick / Maternité Quai 1,FEDE004,busStation,49.6178940431443,6.0976155799591,653
30,1210008,AVL,Centre Hospitalier,BARB008,busStation,49.6189072568583,6.09963241999518,273
31,1512007,AVL,Kannerklinick / Maternité Quai 2,FEDE007,busStation,49.6179434315288,6.09743263514767,156
32,2548001,AVL,Boy Konen,SPOR001,busStation,49.580350932062,6.09436572350474,857
33,1934902,AVL,Rue de Leudelange Quai 1,LEUD902,busStation,49.581773692207,6.09728370832643,264
34,1870122,AVL,Antoine Quai 2,KOHL122,busStation,49.58412236507,6.10053438100339,259
35,1870007,AVL,Rue Verte Quai 1,KOHL007,busStation,49.5895655443057,6.11529576566965,4
36,1224035,AVL,Louis de Froment Quai 1,BEET035,busStation,49.5905711496778,6.11774128167309,163
37,1145183,AVL,Aubépines Quai 2,AUBE183,busStation,49.6156427891464,6.09824785257398,820
38,1145125,AVL,Val Ste Croix Quai 2,AUBE125,busStation,49.61197171346,6.09751066351759,670
39,1420275,AVL,"Merl, Kierfecht Quai 2",DIDE275,busStation,49.6097751466346,6.09924716572783,631
40,2163901,AVL,Monterey Quai 1,MONT901,busStation,49.610481296799,6.12573168114265,406
41,1420063,AVL,Sacré-Coeur Quai 2,DIDE063,busStation,49.6102402106499,6.11316110636391,673
46,1415058,AVL,Déportation Quai 2,DEPO058,busStation,49.5937288299007,6.12822564010692,167
47,2155144,AVL,Millewee Quai 2,MUHL144,busStation,49.5919116799419,6.1267824023994,738
48,1617024,AVL,Bei der Auer Quai 2,GASP024,busStation,49.5913108056277,6.12468648342764,418
49,1224002,AVL,Klensch Quai 2,BEET002,busStation,49.5930158607141,6.11909179553352,172
50,1870006,AVL,Rue Verte Quai 2,KOHL006,busStation,49.5894170069108,6.1147509832267,615
51,1870022,AVL,Kuelebierg Quai 2,KOHL022,busStation,49.5881550098553,6.11104760128316,768
52,1870064,AVL,Tubishaff Quai 2,KOHL064,busStation,49.585956914032,6.1073306125417,357
2,2131024,AVL,Gabriel de Marie Quai 1,MARI024,busStation,49.6191563456898,6.16630539275682,30
4,1267016,AVL,Gabriel de Marie Quai 2,BRUC016,busStation,49.6184897101094,6.16516709580496,721
5,2630912,AVL,"Cents, Kierch Quai 2",TRÈV912,busStation,49.615191966255,6.15946016227643,428
8,2630902,AVL,Fort Dumoulin Quai 2,TRÈV902,busStation,49.6124261727119,6.14760341436142,470
9,1319054,AVL,Trèves Quai 1,CENT054,busStation,49.6177081528371,6.16998956387635,315
10,2539104,AVL,Charles de Tornaco Quai 1,SIMO104,busStation,49.6192292529464,6.16340712037074,546
12,1343002,AVL,Plateau Altmunster Quai 1,CLAU002,busStation,49.612806077805,6.14003553513589,84
13,2618007,AVL,Um Bock / Casemates Quai 1,THOR007,busStation,49.6116553778723,6.13498027257824,568
14,1319029,AVL,Trèves Quai 2,CENT029,busStation,49.6175707269377,6.16915288552331,284
15,2165903,AVL,Clausener Bréck Quai 3,MOUS903,busStation,49.6131450707895,6.14356010677756,614
16,2359041,AVL,Paul Albrecht Quai 1,POLF041,busStation,49.6206727971492,6.17423507660083,941
17,1831122,AVL,Tour Jacob Quai 1,JACO122,busStation,49.6116988100027,6.14219096973281,339
18,1831168,AVL,Rumm Quai 1,JACO168,busStation,49.6108227305066,6.13914100817474,632
19,2630017,AVL,Kéibierg-INS Quai 2,TRÈV017,busStation,49.6110139144956,6.14250794102815,680
20,2630062,AVL,Dinselpuert,TRÈV062,busStation,49.6107369570158,6.14076586507885,870
21,2630066,AVL,Kéibierg-INS Quai 1,TRÈV066,busStation,49.6109924283904,6.14273071476528,34
23,2630901,AVL,Fort Dumoulin Quai 1,TRÈV901,busStation,49.6125122366894,6.14853986225966,3
24,1831159,AVL,Rumm Quai 2,JACO159,busStation,49.610948310079,6.13985358116517,912
25,2630140,AVL,Tawioun Quai 1,TRÈV140,busStation,49.6138783586218,6.15433062908379,919
26,2630911,AVL,"Cents, Kierch Quai 1",TRÈV911,busStation,49.6151494249575,6.15955955835568,719
27,2618008,AVL,Um Bock / Casemates Quai 2,THOR008,busStation,49.6117265602266,6.13494840684259,960
29,2539028,AVL,Jules Salentiny Quai 1,SIMO028,busStation,49.6170313792362,6.15889622959122,574
30,2539072,AVL,Arthur Knaff Quai 1,SIMO072,busStation,49.6184674720502,6.16095893710492,834
31,1319932,AVL,"Cents, Waassertuerm Quai 2",CENT932,busStation,49.6207054932351,6.18258321492871,320
32,2539059,AVL,Arthur Knaff Quai 2,SIMO059,busStation,49.6179377324508,6.15953583085034,292
33,1319070,AVL,Carmel Quai 1,CENT070,busStation,49.6183580262648,6.17265203018962,671
34,1319067,AVL,Carmel Quai 2,CENT067,busStation,49.6183302571365,6.1722520804072,505
35,2359903,AVL,Camille Polfer Quai 3,POLF903,busStation,49.6197777945445,6.17626702682668,55
36,2359040,AVL,Paul Albrecht Quai 2,POLF040,busStation,49.620710420864,6.17430213655841,607
37,1319931,AVL,"Cents, Waassertuerm Quai 1",CENT931,busStation,49.6207887045944,6.18267534574129,833
39,1214009,AVL,Barrès Quai 1,BARR009,busStation,49.5958351174339,6.11597755542714,220
41,1934001,AVL,Am Eck Quai 1,LEUD001,busStation,49.5855968872745,6.09906315555343,596
42,1281026,AVL,Am Brill Quai 1,BRIL026,busStation,49.5882897834441,6.0991801056654,98
44,2432001,AVL,Fischerhaff Quai 3,ROED001,busStation,49.5912953327092,6.10531243309818,140
45,1320089,AVL,Artisans Quai 1,CESS089,busStation,49.5944709329005,6.10998223353521,934
46,1471902,AVL,Assurances Sociales Quai 1,ESCH902,busStation,49.5967692503315,6.11772172759728,578
48,1112901,AVL,Assurances Sociales Quai 2,ACIE901,busStation,49.5973620888291,6.11840648910939,742
50,1320088,AVL,Artisans Quai 2,CESS088,busStation,49.5940863902804,6.10899465025444,267
51,1319935,AVL,"Cents, Waassertuerm Quai 5",CENT935,busStation,49.6207364859194,6.18274759628991,510
52,2359904,AVL,Camille Polfer Quai 4,POLF904,busStation,49.6198337220531,6.17634687584831,514
53,1267903,AVL,Robert Bruch Quai 3,BRUC903,busStation,49.6172108111976,6.16547673284093,277
54,1321170,AVL,Fischerhaff Quai 2,CESS170,busStation,49.5915257923755,6.10553405222769,639
55,2539119,AVL,Charles de Tornaco Quai 2,SIMO119,busStation,49.6192907819207,6.16334815743499,432
56,2539011,AVL,Jules Salentiny Quai 2,SIMO011,busStation,49.6167632301563,6.15896721667238,509
57,2630083,AVL,Tawioun Quai 2,TRÈV083,busStation,49.6138208548073,6.15382169363153,6
58,1831085,AVL,Tour Jacob Quai 2,JACO085,busStation,49.6120806888686,6.14308240079933,110
59,2165904,AVL,Clausener Bréck Quai 4,MOUS904,busStation,49.6132521895697,6.14352615061501,296
60,1343001,AVL,Plateau Altmunster Quai 2,CLAU001,busStation,49.6127463657248,6.13980366190055,267
64,1214008,AVL,Barrès Quai 2,BARR008,busStation,49.5958952655005,6.11550342651017,154
65,1281031,AVL,Am Brill Quai 2,BRIL031,busStation,49.5879636170472,6.09908875574436,851
66,1934002,AVL,Am Eck Quai 2,LEUD002,busStation,49.5855357095706,6.09877619528367,657
67,1934911,AVL,Rue de Leudelange Quai 3,LEUD911,busStation,49.5821115840093,6.09712527987742,111
3,1331021,AVL,Rheinsheim Quai 2,CHAR021,busStation,49.6079055281889,6.11983344431738,55
4,1924001,AVL,Nancy Quai 1,LAVA001,busStation,49.6035304500025,6.11863790277483,433
5,2328018,AVL,Peupliers Quai 2,PEUP018,busStation,49.611890301093,6.1653286465568,464
6,2172028,AVL,Alphonse Munchen Quai 1,MUNC028,busStation,49.6046795380896,6.11456948554826,677
7,1430022,AVL,Athénée Quai 3,DUPO022,busStation,49.6046350795221,6.11134668201693,994
8,1651013,AVL,Guillaume Quai 1,GUIL013,busStation,49.6066006668703,6.11837374379949,878
12,1248903,AVL,\(131) Bouillon Quai 4,BOUI903,busStation,49.5999171439678,6.10543837927691,844
13,1924047,AVL,Salzhaff / Schluechthaus Quai 1,LAVA047,busStation,49.6002889488921,6.11780477633427,715
14,1713112,AVL,"Hamm, Colonie Quai 2",HAMM112,busStation,49.6071068488263,6.15554190445156,88
15,1650902,AVL,Bragance Quai 1,GUIL902,busStation,49.6071180804875,6.1156713779259,669
16,2224010,AVL,Ierzkaulen,NEVE010,busStation,49.6051138885999,6.15388603299785,35
18,2132011,AVL,Rheinsheim Quai 1,MARI011,busStation,49.6070115657215,6.12114593244065,330
19,2342036,AVL,Poincaré,POIN036,busStation,49.602208348013,6.11648725970555,30
20,2343903,AVL,Fort Dumoulin Quai 3,POMM903,busStation,49.6120487456467,6.14798542975399,223
23,2343207,AVL,"Cents-Hamm, Halte CFL Quai 4",ALOU904,busStation,49.6150011757235,6.16561883563712,605
26,1713176,AVL,"Hamm, Schoul Quai 2",HAMM176,busStation,49.6091097837405,6.16200127275513,95
28,2343099,AVL,Pommiers Quai 2,POMM099,busStation,49.6127991731719,6.1572733290369,542
34,2343042,AVL,Nic Rollinger Quai 1,POMM042,busStation,49.6113950124601,6.15102794618959,112
35,2343094,AVL,Pommiers Quai 1,POMM094,busStation,49.612748329635,6.15740089584376,546
36,2328021,AVL,Peupliers Quai 1,PEUP021,busStation,49.6118350439997,6.16527647372763,157
37,2343194,AVL,Fetschebuer Quai 1,POMM194,busStation,49.6141867269501,6.16285543727558,494
38,2343037,AVL,Nic Rollinger Quai 2,POMM037,busStation,49.6117949983964,6.15229219901042,233
39,2343206,AVL,"Cents-Hamm, Halte CFL Quai 3",ALOU903,busStation,49.6148384538694,6.16558674253481,853
40,1273012,AVL,Rue de Bitbourg Quai 1,BITB012,busStation,49.6131553117198,6.16996264421197,602
42,1718052,AVL,Käschtewee Quai 2,HAUT052,busStation,49.6126732362583,6.17269039558085,85
43,1718051,AVL,Käschtewee Quai 1,HAUT051,busStation,49.6126056191434,6.17250047728787,965
44,1718017,AVL,Rue Haute Quai 1,HAUT017,busStation,49.6108534990982,6.16927918285107,940
45,1713217,AVL,"Hamm, Kierch Quai 1",HAMM217,busStation,49.6100176077316,6.16673871222984,728
46,1713159,AVL,"Hamm, Schoul Quai 1",HAMM159,busStation,49.6091392732249,6.16173651899544,207
47,1713115,AVL,"Hamm, Colonie Quai 1",HAMM115,busStation,49.6070900458496,6.15522447873317,986
48,1713210,AVL,"Hamm, Kierch Quai 2",HAMM210,busStation,49.6098581126639,6.16647107559188,907
49,1255903,AVL,Bragance Quai 2,BRAG903,busStation,49.607077359106,6.11476009603189,604
50,1718022,AVL,Rue Haute Quai 2,HAUT022,busStation,49.6111539813383,6.1701616787361,188
51,1273013,AVL,Rue de Bitbourg Quai 2,BITB013,busStation,49.6131473801659,6.16927083625929,513
52,2343179,AVL,Fetschebuer Quai 2,POMM179,busStation,49.6139316095274,6.16162415541631,824
53,1111005,AVL,Salzhaff / Schluechthaus Quai 2,ABAT005,busStation,49.600513240488,6.11705792623534,646
59,1650010,AVL,Guillaume Quai 2,GUIL010,busStation,49.6067278103518,6.11842161783874,329
63,2172025,AVL,Alphonse Munchen Quai 2,MUNC025,busStation,49.6043775370928,6.11508567024488,651
64,2342006,AVL,Nancy Quai 2,POIN006,busStation,49.6033138477903,6.1182492408014,419
65,1430029,AVL,Athénée Quai 4,DUPO029,busStation,49.6046761905594,6.11155189693371,799
1,1115051,AVL,Jean Monnet Quai 1,ADEN051,busStation,49.6247666442666,6.1460376535648,769
3,1347904,AVL,Luxexpo Quai 4,CIRC904,busStation,49.6362586215136,6.17550739599766,61
5,2633022,AVL,"Senningerberg, Autobunn Quai 2",TRÈV022,busStation,49.6397116445731,6.21664440554414,6
7,1115016,AVL,Konrad Adenauer Quai 2,ADEN016,busStation,49.6294865967709,6.1568693987639,946
9,1115913,AVL,Avalon Quai 3,ADEN913,busStation,49.6325124108764,6.16138857590702,134
17,2633021,AVL,"Senningerberg, Autobunn Quai 1",TRÈV021,busStation,49.6387423694958,6.2163672345656,805
23,1110901,AVL,Aéroport Quai 1,AERO901,busStation,49.6348499636131,6.21574432610785,210
29,8268005,AVL,"Bertrange, École Européenne II Quai 5",THOR005,busStation,49.6174675309982,6.03785054998243,293
30,1115099,AVL,B.E.I. Quai 1,ADEN099,busStation,49.6212729164599,6.1397196140058,185
31,1115025,AVL,Antoine de St Exupéry Quai 1,ADEN025,busStation,49.6271536287873,6.15163173409883,90
32,1347013,AVL,Poutty Stein Quai 2,CIRC013,busStation,49.6354803633577,6.16869585524216,599
33,1115019,AVL,Konrad Adenauer Quai 1,ADEN019,busStation,49.6294028793648,6.15712357513579,846
34,1347018,AVL,Poutty Stein Quai 1,CIRC018,busStation,49.6357281544444,6.16926325259776,80
35,1347905,AVL,Luxexpo Quai 5,CIRC905,busStation,49.636942798142,6.17478904131526,146
37,1115912,AVL,Avalon Quai 2,ADEN912,busStation,49.6319794589003,6.16020071068066,707
38,1115026,AVL,Antoine de St Exupéry Quai 2,ADEN026,busStation,49.6272452960338,6.15133554788686,467
39,1115070,AVL,Jean Monnet Quai 2,ADEN070,busStation,49.6249059442941,6.14584947615578,550
40,1115098,AVL,B.E.I. Quai 2,ADEN098,busStation,49.6205095106894,6.13904426700704,947
43,1260911,AVL,Gare Rocade Quai 1,BONN911,busStation,49.6013876778353,6.13704968339367,259
1,1248901,AVL,\(131) Bouillon Quai 3,BOUI901,busStation,49.5999893966555,6.10760725192112,676
2,1248902,AVL,"Hollerich, Kierfecht Quai 3",BOUI902,busStation,49.5995854575621,6.11196359105908,161
4,1470069,AVL,Heentze Park Quai 1,ESCH069,busStation,49.6012972986901,6.12000155177016,446
6,1470070,AVL,Heentze Park Quai 2,ESCH070,busStation,49.6015460776888,6.11987614952134,816
1,1471420,AVL,Stade de Luxembourg Quai 2,ESCH420,busStation,49.5773014913374,6.111979429107,307
15,1543091,AVL,Mathias Tresch Quai 2,FRIE091,busStation,49.6376132070071,6.16872447658631,67
16,1543901,AVL,Avalon Quai 1,FRIE901,busStation,49.6325754301128,6.16029069050282,961
18,1543022,AVL,Simone de Beauvoir Quai 1,FRIE022,busStation,49.6351433718285,6.16008585488402,202
20,1543046,AVL,Léon Thyes Quai 1,FRIE046,busStation,49.6375500237332,6.1672459480963,146
21,1543090,AVL,Mathias Tresch Quai 1,FRIE090,busStation,49.6373663759638,6.16966689794682,906
22,1734902,AVL,Luxexpo Entrée Sud Quai 2,HEMM902,busStation,49.6347230027066,6.16936311263655,261
24,1471409,AVL,Schaarfen Eck Quai 1,ESCH409,busStation,49.5797593841944,6.1134945708828,661
25,1899901,AVL,"Kockelscheuer, \(131) Patinoire Quai 1",BETT901,busStation,49.5652560612658,6.10841655937363,981
26,1471401,AVL,Cloche d'Or Quai 1,ESCH401,busStation,49.5838044995258,6.11552502739622,811
27,1899021,AVL,"Kockelscheuer, Camping Quai 1",BETT021,busStation,49.574022891909,6.11326596600221,894
28,1471421,AVL,Stade de Luxembourg Quai 1,ESCH421,busStation,49.577401328612,6.1123747569636,901
29,1471267,AVL,Stengege Wee Quai 1,ESCH267,busStation,49.5888461214501,6.11638995541985,154
31,1471193,AVL,Gaasperecher Bierg Quai 1,ESCH193,busStation,49.5930098120774,6.11704387090936,281
32,1415030,AVL,"Hollerich, Gare Quai 1",DEPO030,busStation,49.5950762623957,6.12126782329019,133
33,1415042,AVL,Lascombes Quai 1,DEPO042,busStation,49.5941012738575,6.12619694962686,857
35,1543045,AVL,Léon Thyes Quai 2,FRIE045,busStation,49.6372534218522,6.16468665653476,242
36,1543021,AVL,Simone de Beauvoir Quai 2,FRIE021,busStation,49.6345853408534,6.15934264758907,259
39,1471408,AVL,Schaarfen Eck Quai 2,ESCH408,busStation,49.5792985103555,6.1126916269341,128
42,1415011,AVL,Lascombes Quai 2,DEPO011,busStation,49.5943474198765,6.12524134784118,735
45,1471402,AVL,Cloche d'Or Quai 2,ESCH402,busStation,49.5830944975803,6.11519332140888,55
47,1415005,AVL,"Hollerich, Gare Quai 2",DEPO005,busStation,49.5952411357419,6.1206629751058,866
48,1471242,AVL,Gaasperecher Bierg Quai 2,ESCH268,busStation,49.5920935428014,6.1167380945107,534
49,1471316,AVL,Stengege Wee Quai 2,ESCH316,busStation,49.5878382947779,6.11602042445683,449
50,1899020,AVL,"Kockelscheuer, Camping Quai 2",BETT020,busStation,49.5736324722922,6.1131230005591,49
1,1750902,AVL,Theater Quai 2,HUGO902,busStation,49.617515534249,6.12569150055398,799
6,1250068,AVL,Bois,BOIS068,busStation,49.6226829747479,6.12293615460853,968
7,2240009,AVL,Cathédrale,NOTR009,busStation,49.609994953121,6.13114582619615,539
8,1536011,AVL,Gruef,FOSS011,busStation,49.6110970272968,6.13169026458803,43
9,1450004,AVL,Kasinosgaass,EICH004,busStation,49.6124231386181,6.13147392925373,577
11,1750901,AVL,Theater Quai 1,HUGO901,busStation,49.618258401137,6.1255369958901,982
12,1628016,AVL,Kiischtewee Quai 1,GLAC016,busStation,49.6209066781833,6.12820599969659,423
13,1227003,AVL,Belle-Vue,BELL003,busStation,49.6228716813623,6.12763342104728,849
14,1322019,AVL,Arts et Métiers,CERI019,busStation,49.6216829009354,6.12685864263318,575
15,1250032,AVL,Guillaume Schneider,BOIS032,busStation,49.6205620993496,6.12411354818533,695
16,1250082,AVL,Waassertuerm Quai 3,BOIS082,busStation,49.6236072620314,6.12248007910016,413
17,1521116,AVL,Adolphe Fischer,FISC116,busStation,49.6000586150485,6.12807508371364,97
18,1127902,AVL,Square André Quai 2,ANDR902,busStation,49.6236846344565,6.11908265123406,283
19,2716045,AVL,Batty Weber Quai 2,WEBE045,busStation,49.6221400375307,6.11666731007303,918
20,2716001,AVL,Uni Campus Limpertsberg Quai 2,WEBE001,busStation,49.620904271727,6.11437234172701,408
21,2241002,AVL,Lefèvre Quai 1,NEUM002,busStation,49.6225652110491,6.10811174725137,847
22,1511164,AVL,Jean Soupert Quai 1,FAIE164,busStation,49.6221609604734,6.11173617999138,229
23,2311011,AVL,Allée Scheffer,PAST011,busStation,49.6182202519784,6.12400223822926,2
24,2241019,AVL,Neumans Park,NEUM019,busStation,49.6208172839498,6.10764752875973,493
25,2241001,AVL,Lefèvre Quai 2,NEUM001,busStation,49.6222957158122,6.10812771094435,144
26,1511149,AVL,Jean Soupert Quai 2,FAIE149,busStation,49.6219298066387,6.11220683770816,42
27,1913020,AVL,Léandre Lacroix,LACR020,busStation,49.6221895478464,6.11468411870053,365
28,2311085,AVL,N.S. Pierret,PAST085,busStation,49.6207119212228,6.11856568614343,764
29,2311033,AVL,Alfred de Musset,PAST033,busStation,49.6189346545916,6.12198002537441,31
32,2320069,AVL,Ste Zithe,PETR069,busStation,49.6066699048169,6.12621898296915,666
33,2320003,AVL,Michel Rodange,PETR003,busStation,49.6030899324853,6.12479615146447,950
34,1477042,AVL,États-Unis,ETAT042,busStation,49.6002761641667,6.1266919599605,262
1,1817906,AVL,Lycée Bouneweg / PE Quai 6,IVOI906,busStation,49.5903942023638,6.13960345890299,495
2,1338905,AVL,Lycée Bouneweg / LTB Quai 5,CIME905,busStation,49.591181071451,6.14159176677848,239
3,1880197,AVL,Anatole France Quai 1,KRIE197,busStation,49.5987548424762,6.14883065911803,736
4,1522060,AVL,Jules Fischer Quai 1,FISC060,busStation,49.5922468486829,6.14649780430805,540
5,1619027,AVL,Izeger Knupp Quai 1,GEHR027,busStation,49.595829573415,6.15023314051078,878
7,1881055,AVL,Nic Martha Quai 1,KALT055,busStation,49.5930077627574,6.14926283193932,642
8,1338050,AVL,Willibrord Quai 2,CIME050,busStation,49.59378990142,6.14085790473237,735
9,1619077,AVL,Kaltreis Quai 1,GEHR077,busStation,49.5939995222038,6.15081041553454,846
10,1880159,AVL,Jean Jacoby Quai 1,KRIE159,busStation,49.5983886116997,6.14674816565007,947
11,1880111,AVL,Wisestrooss Quai 1,KRIE111,busStation,49.5978408481858,6.14387352923204,82
12,1880077,AVL,Vannérus Quai 1,KRIE077,busStation,49.5975154502418,6.14126276494318,48
13,1261901,AVL,Léon XIII Quai 1,BONN901,busStation,49.5977796660262,6.13775936288568,816
14,1880114,AVL,Wisestrooss Quai 2,KRIE114,busStation,49.5979462691964,6.14486392550621,764
15,1260085,AVL,Rotonde Quai 1,BONN085,busStation,49.5997015284814,6.13725921680951,978
18,1260903,AVL,Wallis Quai 3,BONN903,busStation,49.6030284635852,6.13428192067089,32
19,1260912,AVL,Gare Rocade Quai 2,BONN912,busStation,49.6010950757299,6.13685919929232,623
24,1522029,AVL,Jules Fischer Quai 2,FISC029,busStation,49.5923141657123,6.14667378726937,963
25,1750042,AVL,Lycée de Garçons Quai 1,HUGO042,busStation,49.6204099390145,6.12233618303227,404
26,1147076,AVL,Siggy vu Lëtzebuerg,AVEN076,busStation,49.6261072529264,6.11485418062066,80
27,1750086,AVL,Alen Tramsschapp Quai 1,HUGO086,busStation,49.6220944700985,6.12061667851097,39
28,2531901,AVL,Square André Quai 1,SEIM901,busStation,49.6236859513371,6.119858086203,933
29,1250094,AVL,Waassertuerm Quai 1,BOIS094,busStation,49.6244292521997,6.12225159473464,689
30,1147004,AVL,Avenir Quai 1,AVEN004,busStation,49.6255800113974,6.12005101334598,870
31,2311902,AVL,Lycée Michel Lucius Quai 2,PAST902,busStation,49.6247580601168,6.11450461033869,208
32,2311901,AVL,Lycée Michel Lucius Quai 1,PAST901,busStation,49.6242180167187,6.11485504932778,926
33,1260904,AVL,Wallis Quai 4,BONN904,busStation,49.6028431564261,6.13479112023829,495
34,1147003,AVL,Avenir Quai 2,AVEN003,busStation,49.6253080712889,6.1203301860617,182
35,1250131,AVL,Waassertuerm Quai 2,BOIS131,busStation,49.6240961826764,6.12224353181331,178
36,1750059,AVL,Alen Tramsschapp Quai 2,HUGO059,busStation,49.6218605607697,6.12061662610138,447
38,1750041,AVL,Lycée de Garçons Quai 2,HUGO041,busStation,49.6197654674216,6.12319115918037,135
41,1260088,AVL,Rotonde Quai 2,BONN088,busStation,49.599351516408,6.13729356544935,941
42,1815184,AVL,Anatole France Quai 2,ITZI184,busStation,49.5985116941994,6.1495507501462,455
43,1261922,AVL,Léon XIII Quai 2,BONN922,busStation,49.5974140808592,6.1378915048207,253
44,1880054,AVL,Vannérus Quai 2,KRIE070,busStation,49.5974686198427,6.1419160296575,942
45,1880152,AVL,Jean Jacoby Quai 2,KRIE152,busStation,49.5983891744637,6.14713568659678,162
46,1619010,AVL,Izeger Knupp Quai 2,GEHR010,busStation,49.595970585844,6.15011419301859,318
47,1619054,AVL,Kaltreis Quai 2,GEHR054,busStation,49.5934511848717,6.15082854373995,864
48,2133082,AVL,Nic Martha Quai 2,MART082,busStation,49.5928227673899,6.14869235849684,213
49,2423033,AVL,Pont-Remy,REMY033,busStation,49.5944626004386,6.14441697475514,839
50,1338906,AVL,Lycée Bouneweg / LTB Quai 6,CIME906,busStation,49.5910315292431,6.14136524731443,272
51,2521021,AVL,Demy Schlechter,SCHL021,busStation,49.5949853388475,6.14336225089425,271
1,1248061,AVL,AVL Portal,BOUI061,busStation,49.5990181332529,6.10546395528176,561
3,1248064,AVL,AVL Betriebshof,BOUI064,busStation,49.5986967920738,6.10484628833473,943
5,1821042,AVL,Leonardo Da Vinci Quai 2,KOCK042,busStation,49.5803752208601,6.12051465468529,924
13,2529010,AVL,"Howald, Moureschanz Quai 2",SCIL010,busStation,49.5830197055776,6.13643736213231,664
14,2529040,AVL,"Howald, Ronnebësch Quai 2",SCIL040,busStation,49.5786800857518,6.1333986307898,758
16,2411905,AVL,"Howald, \(131) Lux-Sud Quai 1",RAIF931,busStation,49.5794957062048,6.12892333106999,925
18,2411922,AVL,Gerhard Mercator Quai 4,RAIF922,busStation,49.582204185063,6.12459944531332,448
19,1821032,AVL,Hildegard von Bingen Quai 2,KOCK032,busStation,49.5824864853685,6.12184316668334,9
20,1897021,AVL,"Kockelscheuer, Louis Ackermann Quai 1",ACKE021,busStation,49.558698525043,6.10198588954898,254
21,1235008,AVL,Émile Bian Quai 3,BIAN007,busStation,49.5802449408921,6.11709096998803,581
23,1899080,AVL,"Kockelscheuer, Um Plateau Quai 2",BETT080,busStation,49.5597828395977,6.10792403855819,874
24,1897020,AVL,"Kockelscheuer, Louis Ackermann Quai 2",ACKE020,busStation,49.5586667297482,6.10179415213432,949
25,1897050,AVL,"Kockelscheuer, Parc Luxite",ACKE050,busStation,49.5570248989719,6.09695423505914,599
31,2529007,AVL,"Howald, Moureschanz Quai 1",SCIL007,busStation,49.5835635026606,6.13659922840101,723
33,1899081,AVL,"Kockelscheuer, Um Plateau Quai 1",BETT081,busStation,49.5605661077514,6.1083064876432,996
34,2411904,AVL,"Howald, \(131) Lux-Sud Quai 2",RAIF932,busStation,49.579384475315,6.12879150388694,184
38,2557012,AVL,Émile Bian Quai 1,STUM012,busStation,49.5800786424037,6.11835985807071,22
39,2529055,AVL,"Howald, Ronnebësch Quai 1",SCIL055,busStation,49.5789971654773,6.13385045659673,58
40,1821041,AVL,Leonardo Da Vinci Quai 1,KOCK041,busStation,49.5802411188368,6.12090996353522,859
41,2411901,AVL,Gerhard Mercator Quai 1,RAIF901,busStation,49.5826480043817,6.1232726842861,80
1,2441399,AVL,Peiffeschbierg Quai 1,ROLL399,busStation,49.6284028661119,6.11311191371623,295
2,1922003,AVL,"Eich, Centre Culturel",LAVA003,busStation,49.6289808478674,6.13237069250772,204
3,2441359,AVL,Roudebierg Quai 1,ROLL359,busStation,49.6246889348519,6.10453759978412,975
7,2441289,AVL,Val St André Quai 1,ROLL289,busStation,49.6218755218295,6.10571536148256,341
9,2168107,AVL,Eecher Schmelz Quai 1,MUHL107,busStation,49.6280304770157,6.12235782442057,603
10,1246006,AVL,Albert Borschette Quai 1,BORS006,busStation,49.6290271472648,6.16307320749319,260
11,2168045,AVL,Siwemuergen Quai 1,MUHL045,busStation,49.6292160284647,6.11685872326217,915
12,2441379,AVL,Villeroy & Boch Quai 1,ROLL379,busStation,49.628225965474,6.10675149195517,840
13,2441213,AVL,Val Fleuri Quai 1,ROLL213,busStation,49.6190438009254,6.10796029509408,810
15,2440169,AVL,Beim Klomp Quai 1,ROLL169,busStation,49.6178925687091,6.11121324970795,425
16,2440119,AVL,Bei der Fiels Quai 1,ROLL119,busStation,49.6172384534288,6.11384126666663,697
18,2180004,AVL,Réimerwee Quai 2,MONN004,busStation,49.6322602043542,6.16724827819539,173
19,2440041,AVL,Biischtefabrick Quai 1,ROLL041,busStation,49.6150450166775,6.11679548967955,252
23,2441330,AVL,Villeroy & Boch Quai 2,ROLL330,busStation,49.6281295719438,6.10685415383793,541
24,1652005,AVL,Hugo Gernsback,GERN005,busStation,49.6358084904323,6.17475775033267,823
26,1359006,AVL,Coudenhove-Kalergi Quai 1,COUD006,busStation,49.6277106908591,6.15928570793771,478
36,2180003,AVL,Réimerwee Quai 1,MONN003,busStation,49.6324507138733,6.1676804472719,914
38,1734901,AVL,Luxexpo Entrée Sud Quai 1,HEMM901,busStation,49.634635535392,6.16946514628601,886
40,2440054,AVL,Biischtefabrick Quai 2,ROLL054,busStation,49.6151863585097,6.11633022545335,437
45,2440174,AVL,Beim Klomp Quai 2,ROLL174,busStation,49.6182083669577,6.11088993428388,98
48,1246005,AVL,Albert Borschette Quai 2,BORS005,busStation,49.6281947013163,6.16177817458671,440
49,1359005,AVL,Coudenhove-Kalergi Quai 2,COUD005,busStation,49.6281381662488,6.15910848409801,932
50,2442378,AVL,Peiffeschbierg Quai 2,ROLL378,busStation,49.628284358785,6.11304967408575,529
54,2440112,AVL,Bei der Fiels Quai 2,ROLL112,busStation,49.617260200023,6.11435230646221,882
55,2441204,AVL,Val Fleuri Quai 2,ROLL214,busStation,49.6192027265668,6.10748007714167,125
56,2441276,AVL,Val St André Quai 2,ROLL276,busStation,49.6216623478749,6.1058249343968,981
57,2441328,AVL,Roudebierg Quai 2,ROLL328,busStation,49.6246167394079,6.10488810031207,451
58,2168044,AVL,Siwemuergen Quai 2,MUHL044,busStation,49.6291900907317,6.1172619056784,478
59,2168084,AVL,Eecher Schmelz Quai 2,MUHL084,busStation,49.6277440441487,6.12241625972804,99
60,2168118,AVL,École Eich,MUHL118,busStation,49.6269476517369,6.12765671728287,939
4,2361003,AVL,"Strassen, Primeurs",PRIM003,busStation,49.6199524762921,6.09396212269038,864
13,1821113,AVL,\(131) Stade de Luxembourg Quai 3,KOCK113,busStation,49.57683304987,6.1090740402006,588
18,1821031,AVL,Hildegard von Bingen Quai 1,KOCK031,busStation,49.5825382343618,6.12247661121771,221
19,1471422,AVL,Stade de Luxembourg Quai 4,ESCH422,busStation,49.5767500614191,6.11187364558049,692
20,1821021,AVL,Francophonie Quai 1,KOCK021,busStation,49.5849411448063,6.12793933403026,427
21,1821022,AVL,Francophonie Quai 2,KOCK022,busStation,49.5849574568403,6.12750941516166,141
27,1821114,AVL,\(131) Stade de Luxembourg Quai 6,KOCK114,busStation,49.5765403820797,6.11032266531236,142
2,2118046,AVL,Ste Cunégonde Quai 2,MANS046,busStation,49.6143179808157,6.14151156184625,881
4,1343901,AVL,Clausener Bréck Quai 1,CLAU901,busStation,49.6135436499985,6.14403523246522,601
5,2663061,AVL,Vauban Quai 1,VAUB061,busStation,49.6140303398907,6.13533938741451,610
7,2138020,AVL,Sichenhaff Quai 1,MATH020,busStation,49.6198814566363,6.13257282411995,731
9,2610120,AVL,Hippodrome Quai 2,THIO120,busStation,49.5930841160966,6.13923842947029,333
10,2160004,AVL,"Stadgronn, Bréck Quai 1",MUNS004,busStation,49.6085007510665,6.13546988305231,667
15,2118045,AVL,Ste Cunégonde Quai 1,MANS045,busStation,49.6143080717822,6.14111061553246,400
18,2143100,AVL,Stade G. Diderich Quai 1,MENA100,busStation,49.6218721325908,6.13158349043803,494
19,2138004,AVL,Théiwesbuer Quai 1,MATH004,busStation,49.6160980846962,6.13273960727112,774
20,2339018,AVL,François Hogenberg Quai 2,PLAN018,busStation,49.5877721697393,6.1213105380169,977
21,2138014,AVL,"Pfaffenthal, Halte CFL Quai 1",MATH014,busStation,49.6192129166888,6.13245976713312,996
23,2339011,AVL,François Hogenberg Quai 1,PLAN011,busStation,49.5883354076791,6.12080686122122,830
30,2611907,AVL,Lycée Bouneweg / PE Quai 7,THIO907,busStation,49.5914083552837,6.14059588827314,832
31,2611053,AVL,Hippodrome Quai 1,THIO053,busStation,49.5935872852705,6.13884913912823,864
32,2611023,AVL,Dernier Sol Quai 1,THIO023,busStation,49.5952373606371,6.13500180062187,668
33,2663018,AVL,Vauban Quai 2,VAUB018,busStation,49.6138658181826,6.1355982593199,632
35,1433004,AVL,Charles Darwin Quai 1,DARW004,busStation,49.5846277314606,6.12365433233851,801
42,2143107,AVL,Stade G. Diderich Quai 2,MENA107,busStation,49.6215653267546,6.13154612476795,166
45,2138065,AVL,Sichenhaff Quai 2,MATH065,busStation,49.6201868912608,6.1325548862519,431
47,2138047,AVL,"Pfaffenthal, Halte CFL Quai 2",MATH047,busStation,49.6187952254503,6.13230428626346,817
49,2663002,AVL,Théiwesbuer Quai 2,VAUB002,busStation,49.6155140917209,6.13313389557697,976
52,2651004,AVL,"Stadgronn, Bréck Quai 2",ULRI004,busStation,49.608184962196,6.13543302640933,795
56,2610074,AVL,Dernier Sol Quai 2,THIO074,busStation,49.5949612728711,6.13656809555714,518
58,1433003,AVL,Charles Darwin Quai 2,DARW003,busStation,49.5844504698225,6.12376162307863,62
2,2350006,AVL,Cloche d'Or Quai 4,PIRE006,busStation,49.5832902541772,6.11727115503525,216
11,1145048,AVL,Charlemagne Quai 1,AUBE048,busStation,49.6080250412052,6.09798054151389,41
15,1274103,AVL,"Howald, Peternelchen",BRUY103,busStation,49.5774245339474,6.1375536455186,478
19,2350005,AVL,Jean Piret Quai 1,PIRE005,busStation,49.5833047177314,6.11785145565677,539
23,1235013,AVL,Émile Bian Quai 2,BIAN013,busStation,49.5806003955113,6.11799703788226,646
29,2350008,AVL,Jean Piret Quai 2,PIRE008,busStation,49.58288384788,6.11829137332781,823
32,1145049,AVL,Charlemagne Quai 2,AUBE049,busStation,49.6076125114818,6.09803273877885,925
33,1215004,AVL,Barrière Quai 3,BARR004,busStation,49.6033212504247,6.09731866822662,637
35,1471903,AVL,Assurances Sociales Quai 3,ESCH903,busStation,49.5971800706683,6.11760060872011,214
2,2542086,AVL,Tommys Bruch Quai 1,SOUR086,busStation,49.6314583225539,6.13795928280636,942
3,1319921,AVL,Camille Polfer Quai 1,CENT921,busStation,49.6192684231339,6.17640726093227,961
5,2540023,AVL,Joseph Hackin Quai 1,STEI023,busStation,49.6303517626115,6.17161106609872,365
7,2630913,AVL,"Cents, Kierch Quai 3",TRÈV913,busStation,49.6155795036968,6.16132068414766,482
8,1858004,AVL,Mäertesbuer Quai 2,KIRC004,busStation,49.6279588816222,6.13978488228862,639
10,1319911,AVL,Robert Bruch Quai 1,CENT911,busStation,49.6167889067031,6.16624892843207,919
13,2222458,AVL,Fierschterhaus Quai 1,NEUD458,busStation,49.6236655562672,6.17742699812041,514
15,1858031,AVL,Pierre-Eloi Schoué Quai 1,KIRC031,busStation,49.6263477965559,6.136846317254,40
18,1319934,AVL,"Cents, Waassertuerm Quai 4",CENT934,busStation,49.6209182900841,6.18319407452574,467
19,2220617,AVL,Kalchesbruck Quai 2,NEUD617,busStation,49.6225390232204,6.18546857297937,93
20,2220443,AVL,Fierschterhaus Quai 2,NEUD443,busStation,49.6236860960584,6.17716269234043,979
21,2221393,AVL,Laangegronn Quai 2,NEUD393,busStation,49.6242551815671,6.17283675297607,270
22,2542004,AVL,Knupp Quai 1,SOUR004,busStation,49.6288381531055,6.13568919637407,943
23,2221319,AVL,"Neudorf, Kapell Quai 2",NEUD319,busStation,49.6234038544409,6.16819149268953,164
24,2221273,AVL,"Neudorf, Brasserie Quai 2",NEUD273,busStation,49.6225420025922,6.1649595014166,367
26,1857014,AVL,Huesegrënnchen Quai 1,KIEM014,busStation,49.6230557664213,6.16426495458436,144
27,2222270,AVL,"Neudorf, Brasserie Quai 1",NEUD274,busStation,49.6224721670358,6.16504664477497,301
28,1857048,AVL,Carrières Quai 1,KIEM048,busStation,49.6256881222022,6.16595394978111,221
29,1857092,AVL,Bricher Gässel Quai 1,KIEM092,busStation,49.6269761552792,6.16675167442622,28
32,1857059,AVL,Carrières Quai 2,KIEM059,busStation,49.6250194421821,6.16546651796623,568
39,1858002,AVL,"Weimerskirch, Duerf Quai 2",KIRC002,busStation,49.6282828144809,6.1361511260657,299
41,2552004,AVL,"Dommeldange, Gare",STAT004,busStation,49.6335129514214,6.13700771632399,496
43,1858076,AVL,St Vith Quai 2,KIRC076,busStation,49.6263827727673,6.13935096560718,689
44,2542079,AVL,Biechelchen Quai 2,SOUR079,busStation,49.6334641193451,6.14158147055606,170
45,2228901,AVL,Paul Noesen Quai 1,NOES901,busStation,49.6272094336255,6.14367892972196,500
46,1858059,AVL,St Vith Quai 1,KIRC059,busStation,49.6262660796437,6.13899772662986,552
47,1858005,AVL,Mäertesbuer Quai 1,KIRC005,busStation,49.628014675832,6.13913068021377,514
48,1329903,AVL,Van der Meulen Quai 3,CHAT903,busStation,49.6360922435568,6.14344990547182,895
49,1858001,AVL,"Weimerskirch, Duerf Quai 1",KIRC001,busStation,49.6284576887371,6.13594696899849,794
50,2542156,AVL,Biechelchen Quai 1,SOUR156,busStation,49.6335134791268,6.14175864492074,68
51,1329027,AVL,Sidney Thomas,CHAT027,busStation,49.6344652639041,6.13950051647609,191
52,2542043,AVL,Tommys Bruch Quai 2,SOUR043,busStation,49.6317536609303,6.13826052942787,966
53,2542003,AVL,Knupp Quai 2,SOUR003,busStation,49.6287621767173,6.13552745668683,444
55,1858022,AVL,Pierre-Eloi Schoué Quai 2,KIRC022,busStation,49.6265491962992,6.1369868456525,113
56,2228902,AVL,Paul Noesen Quai 2,NOES902,busStation,49.6271711094902,6.14358422660332,94
63,2540028,AVL,Joseph Hackin Quai 2,STEI028,busStation,49.6301326257739,6.1711113084685,369
64,1857095,AVL,Bricher Gässel Quai 2,KIEM095,busStation,49.6267530961285,6.16645993827486,542
65,1857003,AVL,Huesegrënnchen Quai 2,KIEM003,busStation,49.6225626845516,6.16433513888828,440
66,2222310,AVL,"Neudorf, Kapell Quai 1",NEUD310,busStation,49.6236396160821,6.16863481222028,654
67,2222392,AVL,Laangegronn Quai 1,NEUD392,busStation,49.6240683549011,6.17329072258401,107
68,2220598,AVL,Kalchesbruck Quai 1,NEUD598,busStation,49.6226496537998,6.18483903436208,108
69,1319933,AVL,"Cents, Waassertuerm Quai 3",CENT933,busStation,49.6209721926708,6.18319096476581,400
70,1319922,AVL,Camille Polfer Quai 2,CENT922,busStation,49.6192706560402,6.17613019026824,292
73,1319912,AVL,Robert Bruch Quai 2,CENT912,busStation,49.6168428085407,6.16624580043591,523
74,2630914,AVL,"Cents, Kierch Quai 4",TRÈV914,busStation,49.6156030613469,6.16118085409909,140
10,2674003,AVL,Rehazenter Quai 3,VESA003,busStation,49.6285438590769,6.17383483403368,280
11,2222228,AVL,"Neudorf, Kierch Quai 1",NEUD228,busStation,49.621176980883,6.16175687320583,536
17,7220045,AVL,"Helmsange, Tricentenaire Quai 2",DIEK045,busStation,49.6623060632721,6.13319669306633,325
22,2222076,AVL,Hierzekrëpp Quai 1,NEUD076,busStation,49.617196144467,6.15206030482609,334
36,1342044,AVL,Malakoff Quai 1,CLAU044,busStation,49.6152029904515,6.14674892368489,919
38,2222132,AVL,Fixmer Quai 1,NEUD132,busStation,49.6187233778324,6.15636071557089,765
46,2674006,AVL,Rehazenter Quai 5,VESA006,busStation,49.6274446293569,6.17155792776914,562
48,2674004,AVL,Rehazenter Quai 4,VESA004,busStation,49.6285504775767,6.17373750280224,75
57,2221249,AVL,"Neudorf, Kierch Quai 2",NEUD249,busStation,49.6212468139319,6.16166972763524,40
58,2221155,AVL,Fixmer Quai 2,NEUD155,busStation,49.6191729419828,6.15708227617327,899
59,2221065,AVL,Hierzekrëpp Quai 2,NEUD065,busStation,49.6169362256997,6.1513692944671,540
60,1342099,AVL,Malakoff Quai 2,CLAU099,busStation,49.6150083131273,6.14615107755918,619
2,1899902,AVL,"Kockelscheuer, \(131) Patinoire Quai 2",BETT902,busStation,49.5652595148874,6.10855467416873,628
7,1321179,AVL,"Cessange, Kierch Quai 1",CESS179,busStation,49.5895101171583,6.10659445733289,585
15,2339007,AVL,Beethoven Quai 1,PLAN007,busStation,49.5896873126364,6.11801482224465,432
22,1321240,AVL,"Cessange, Kierch Quai 2",CESS240,busStation,49.5887600211207,6.10681876153302,82
26,1229901,AVL,Wallis Quai 2,BEND901,busStation,49.6033718082298,6.13470474508567,502
27,1321227,AVL,"Cessange, Duerf Quai 1",CESS227,busStation,49.5873634020234,6.10385703069325,654
30,1321177,AVL,Fischerhaff Quai 1,CESS177,busStation,49.5912352258059,6.10578652788723,738
39,1950008,AVL,Laboratoire Quai 1,LUMI008,busStation,49.6046352196087,6.1381329218137,412
40,1950024,AVL,Lavoisier Quai 1,LUMI024,busStation,49.6051834729532,6.14102170760209,549
41,2316094,AVL,Général Patton Quai 1,PATT094,busStation,49.607751312495,6.14226964619497,734
42,2316202,AVL,"Pulvermuhl, Hammer Dällchen Quai 1",PATT202,busStation,49.6088900994751,6.15086948137868,66
49,2339008,AVL,Beethoven Quai 2,PLAN008,busStation,49.5895849908086,6.11860208370976,505
52,2316199,AVL,"Pulvermuhl, Hammer Dällchen Quai 2",PATT199,busStation,49.6086376683482,6.15048272655204,699
53,2316001,AVL,Général Patton Quai 2,PATT001,busStation,49.6077824645856,6.14207400931862,585
54,1950017,AVL,Lavoisier Quai 2,LUMI017,busStation,49.6052408900822,6.14079685667604,642
56,1950001,AVL,Laboratoire Quai 2,LUMI001,busStation,49.6047357475315,6.1381962477212,861
57,1260902,AVL,Wallis Quai 1,BEND902,busStation,49.6031204312837,6.13399967449924,840
61,1321298,AVL,"Cessange, Duerf Quai 2",CESS298,busStation,49.5868554338631,6.10225424038259,130
1,5880001,AVL,"Hesperange, Cité Um Schlass",CEIN001,busStation,49.5728484745277,6.14386693429987,732
4,5826150,AVL,"Howald, Op der Stirzel Quai 1",GASP150,busStation,49.5768919657045,6.13530202344461,746
12,1350901,AVL,"Howald, \(131) Lux-Sud Quai 3",CROI933,busStation,49.5786301218028,6.1273968930024,188
18,2411912,AVL,Gerhard Mercator Quai 2,RAIF912,busStation,49.5828531989486,6.12356502091983,380
23,5826151,AVL,"Howald, Op der Stirzel Quai 2",GASP151,busStation,49.5766711434914,6.13546714562046,812
1,1638080,AVL,"Senningerberg, rue du Golf Quai 2",GOLF080,busStation,49.644950928433,6.22090355457991,480
2,1338904,AVL,Lycée Bouneweg / LTB Quai 4,CIME904,busStation,49.5912387292354,6.14174062581137,259
3,1160901,AVL,Al Molkerei Quai 1,AVRA901,busStation,49.6055725011103,6.13710898343949,927
7,2632001,AVL,"Findel, Business Center Quai 2",TRÈV001,busStation,49.6237702362207,6.19282029759298,117
18,2632008,AVL,"Findel, Reno Quai 1",TRÈV008,busStation,49.6220811876984,6.18809836303424,910
20,2632012,AVL,"Findel, Gréiwelscheierhaff Quai 1",TRÈV012,busStation,49.6257180762921,6.19820629168142,760
21,2632010,AVL,"Findel, Business Center Quai 1",TRÈV010,busStation,49.6242803377186,6.19456356979295,98
23,2632018,AVL,Findel Quai 1,TRÈV018,busStation,49.6287195065717,6.20401708945305,757
24,2632020,AVL,"Senningerberg, Lou Hemmer Quai 1",TRÈV020,busStation,49.6330446764398,6.21063937167446,652
26,1110913,AVL,Aéroport Quai 4,AERO913,busStation,49.6348596085435,6.21539749008146,334
28,1638083,AVL,"Senningerberg, rue du Golf Quai 1",GOLF083,busStation,49.6451708529467,6.22144520006457,107
31,1638002,AVL,"Senningerberg, Charlys Statioun",GOLF002,busStation,49.6497963772454,6.22600348269325,514
33,1110903,AVL,Aéroport Quai 3,AERO903,busStation,49.6349271575219,6.21558755604287,383
34,2632019,AVL,"Senningerberg, Lou Hemmer Quai 2",TRÈV019,busStation,49.6329724500491,6.2102556743664,269
35,2632015,AVL,Findel Quai 2,TRÈV015,busStation,49.6295647822607,6.2051182158067,793
36,2632005,AVL,"Findel, Gréiwelscheierhaff Quai 2",TRÈV005,busStation,49.6258747615062,6.19798956519722,598
37,1319177,AVL,Reno Quai 2,CENT177,busStation,49.6217803090101,6.18645395943696,307
44,1160922,AVL,Al Molkerei Quai 4,AVRA922,busStation,49.605612628006,6.13691282591229,836
1,2412033,AVL,"Howald, Rangwee Quai 1",RANG033,busStation,49.5878241921479,6.13863295642552,320
3,1467076,AVL,"Howald, Waassertuerm",ENTR076,busStation,49.5781169826015,6.14773752191905,809
4,1467057,AVL,"Howald, Minsbësch Quai 1",ENTR057,busStation,49.5804387527946,6.14594174790106,231
5,1353069,AVL,"Dommeldange, Contournement Quai 2",CONT069,busStation,49.6337818087744,6.14096725825298,593
6,1363046,AVL,"Howald, CIPA",COUV046,busStation,49.5891792306378,6.1479638828379,157
8,1467003,AVL,"Howald, Bei der Kierch Quai 1",ENTR003,busStation,49.5833370081848,6.14235483025352,226
9,1426066,AVL,Cyprien Merjai Quai 1,DUNA066,busStation,49.6438210388036,6.13475416708227,337
10,2112021,AVL,"Howald, 9 Mai 1944 Quai 1",1944021,busStation,49.5853025713144,6.13889125561921,553
11,5885205,AVL,"Howald, Jhangeli Quai 2",THIO205,busStation,49.5860038821005,6.14397016058794,572
13,1817909,AVL,Lycée Bouneweg / PE Quai 9 prov.,IVOI909,busStation,49.5897852784068,6.14008193535519,384
14,1628053,AVL,Alen Eecher Bierg Quai 2,GLAC053,busStation,49.6218928903364,6.12951893228799,305
15,5884254,AVL,"Howald, Jhangeli Quai 1",THIO254,busStation,49.5861985587196,6.14347446515612,90
16,1338079,AVL,Willibrord Quai 1,CIME079,busStation,49.5938365269985,6.14092437657026,390
17,2628051,AVL,Virchow Quai 1,TRÉV051,busStation,49.6019993723499,6.13922859835198,340
19,1426047,AVL,Cyprien Merjai Quai 2,DUNA047,busStation,49.6429320295323,6.13482023438639,570
22,1721003,AVL,Château Quai 2,HEIN003,busStation,49.6344813582447,6.13869618783853,682
23,1817910,AVL,Lycée Bouneweg / PE Quai 10 prov.,IVOI910,busStation,49.5896329009985,6.14010468995092,8
25,1628022,AVL,Alen Eecher Bierg Quai 1,GLAC022,busStation,49.62170979201,6.12939121896118,625
29,1467044,AVL,"Howald, Minsbësch Quai 2",ENTR044,busStation,49.5801896004397,6.14605314379166,474
32,1353050,AVL,"Dommeldange, Contournement Quai 1",CONT050,busStation,49.6319869741321,6.13787287807268,756
35,1721002,AVL,Château Quai 1,HEIN002,busStation,49.6346081521102,6.13873030799712,798
37,1161012,AVL,Chingiz Aitmatov Quai 1,AITM012,busStation,49.6394383090769,6.13760203834591,715
38,1426098,AVL,Henri Dunant,DUNA098,busStation,49.6476023428143,6.13450434350442,960
39,1842016,AVL,"Howald, Bei der Kierch Quai 3",DUCJ016,busStation,49.5840873110345,6.14286445908997,214
40,2628089,AVL,Fraternité Quai 1,TRÉV089,busStation,49.599496554803,6.14024715674747,812
42,2628001,AVL,Huese Vic Quai 1,TRÉV001,busStation,49.6037544266165,6.1370771000069,333
45,2268032,AVL,Rangwee Quai 2 prov.,ORCH032,busStation,49.5883159438478,6.13960053246266,89
46,2112022,AVL,"Howald, 9 Mai 1944 Quai 2",1944022,busStation,49.5849100329729,6.13902492867639,303
47,1467004,AVL,"Howald, Bei der Kierch Quai 2",ENTR004,busStation,49.5831742808509,6.14232283123626,273
49,1161009,AVL,Chingiz Aitmatov Quai 2,AIMA009,busStation,49.6391066084893,6.13764920328965,561
50,1329904,AVL,Van der Meulen Quai 4,CHAT904,busStation,49.6360397091283,6.14350838839663,465
52,1628029,AVL,Kiischtewee Quai 2,GLAC029,busStation,49.6208659953043,6.1276544877363,58
55,2628006,AVL,Huese Vic Quai 2,TRÉV006,busStation,49.6036317377754,6.13720887428166,687
56,2628070,AVL,Virchow Quai 2,TRÉV070,busStation,49.6015134869236,6.13958925947648,841
57,2628114,AVL,Fraternité Quai 2,TRÉV114,busStation,49.598841543239,6.13995330064878,276
2,2121233,AVL,Sichegronn Quai 1,MALA233,busStation,49.6284392920858,6.15159825885531,804
5,2121236,AVL,Sichegronn Quai 2,MALA236,busStation,49.6283860721022,6.1516290639773,741
8,1519004,AVL,Schmëdd Quai 1,FIAC004,busStation,49.6282147809861,6.14942311295688,818
10,1858201,AVL,"Kirchberg, Kierch Quai 1",KIRC201,busStation,49.6291404549226,6.14719461247068,305
12,2124111,AVL,Prince Félix,MARA111,busStation,49.6252396410629,6.14005500111339,39
19,2124047,AVL,"Kirchberg, Kierch Quai 2",MARA047,busStation,49.6276374881633,6.14607754635771,618
21,2173001,AVL,Lavals Park Quai 2,MUNC001,busStation,49.6281718608464,6.13312455486086,395
28,1513903,AVL,Paul Noesen Quai 3,FELI903,busStation,49.627005617714,6.14234747034306,440
30,1510008,AVL,Faïencerie - INL Quai 1,FAIE008,busStation,49.6162189483144,6.12202931681385,43
31,1510056,AVL,Henri VII Quai 1,FAIE056,busStation,49.6182263127494,6.11882314571118,135
32,1510088,AVL,Ermesinde Quai 1,FAIE088,busStation,49.6193960118605,6.11666319178297,435
33,2716002,AVL,Uni Campus Limpertsberg Quai 1,WEBE002,busStation,49.6210206934948,6.11471165304372,432
34,2311096,AVL,Batty Weber Quai 1,PAST096,busStation,49.6226786873786,6.11662164902091,301
35,2311102,AVL,Lycée Michel Lucius Quai 3,PAST102,busStation,49.6240977697374,6.11508373309488,2
39,2173002,AVL,Lavals Park Quai 1,MUNC002,busStation,49.6283136094897,6.13267303796692,399
41,1519003,AVL,Schmëdd Quai 2,FIAC003,busStation,49.6282559496274,6.14926836221368,110
48,1510065,AVL,Ermesinde Quai 2,FAIE065,busStation,49.6189288362908,6.11741082886131,558
49,1510021,AVL,Henri VII Quai 2,FAIE021,busStation,49.6176603064395,6.11957657354098,825
50,1510003,AVL,Faïencerie - INL Quai 2,FAIE003,busStation,49.6160137085309,6.12209679801804,347
6,2510077,AVL,"Strassen, Schafsstrachen Quai 4",SCHA077,busStation,49.6203296803962,6.08714052669595,670
8,2510020,AVL,"Strassen, Kaltacht",KALT020,busStation,49.6197349943518,6.09282573561425,9
9,2410282,AVL,"Strassen, Cité Pescher Quai 2",RECK282,busStation,49.6209699103563,6.07828131744959,118
13,2410281,AVL,"Strassen, Cité Pescher Quai 1",RECK281,busStation,49.6213206913479,6.0786342168098,882
18,2510078,AVL,"Strassen, Schafsstrachen Quai 3",SCHA078,busStation,49.620208722861,6.08698157298318,443
1,1858233,AVL,Mischekopp,KIRC233,busStation,49.630753290119,6.1513108604255,614
29,2152901,AVL,Van der Meulen Quai 1,MEUL901,busStation,49.6364870693149,6.14377309328296,795
31,1466002,AVL,Jean Engling Quai 1,ENGL002,busStation,49.6382621921039,6.14170212421833,56
32,1466004,AVL,Parc de l'Europe,ENGL004,busStation,49.6390804686336,6.14496500069659,985
33,1466003,AVL,Jean Engling Quai 2,ENGL003,busStation,49.6381828055949,6.14140201924881,256
37,1468902,AVL,Léon Hengen Quai 3,ERAS902,busStation,49.6243686056872,6.1492322483743,290
2,3352003,AVL,"Leudelange, Gemeng",EICH003,busStation,49.567577718648,6.06310206524708,460
5,3347038,AVL,"Leudelange, Stiédswee Quai 1",CESS038,busStation,49.5688484736672,6.0688632864857,185
11,3347100,AVL,"Leudelange, Schaefert Quai 1",CESS100,busStation,49.5723824182232,6.08017518978119,497
14,3347149,AVL,"Leudelange, Grasbësch Quai 1",CESS149,busStation,49.577047503672,6.09143525538069,246
15,2152902,AVL,Van der Meulen Quai 2,MEUL902,busStation,49.6363616427479,6.14379428686935,237
26,3347029,AVL,"Leudelange, Stiédswee Quai 2",CESS029,busStation,49.5690164684004,6.06910221363729,533
35,3347150,AVL,"Leudelange, Grasbësch Quai 2",CESS150,busStation,49.5770982751609,6.09130771786656,29
41,3347099,AVL,"Leudelange, Schaefert Quai 2",CESS099,busStation,49.572207642209,6.07895440569005,124
53,3354004,AVL,"Leudelange, Queesche Wee",FORE004,busStation,49.5703873316479,6.06214485053829,225
62,3354028,AVL,"Leudelange, Galgebësch",FORE028,busStation,49.5695796674129,6.05903939214238,77
2,1941193,AVL,Orval Quai 1,LONG193,busStation,49.6058480286539,6.10301044530588,891
4,8077177,AVL,"Bertrange, Richterwee Quai 1",LUXE177,busStation,49.6074318978653,6.06981576577721,545
6,2551023,AVL,Crécy Quai 1,SEPT023,busStation,49.6088507259996,6.11696733058657,339
9,8077104,AVL,"Bertrange, Montereale Quai 2",LUXE104,busStation,49.6094149369931,6.06464355806109,448
17,1941337,AVL,St Hubert Quai 1,LONG337,busStation,49.6039595790797,6.09300328757265,80
23,8077259,AVL,"Bertrange, Fleuri Quai 1",LUXE259,busStation,49.6050413065954,6.07631321323114,474
26,2551151,AVL,Place de France Quai 1,SEPT151,busStation,49.6064282695581,6.10678301497423,936
28,2550038,AVL,Crécy Quai 2,SEPT038,busStation,49.6088801119173,6.11670255546346,705
30,2550096,AVL,Franciscaines Quai 2,SEPT096,busStation,49.6082383533175,6.11261490730461,723
31,2550134,AVL,"Merl, Parc Quai 2",SEPT134,busStation,49.6075411657286,6.11027497361156,495
32,2550170,AVL,Place de France Quai 2,SEPT170,busStation,49.6065633631648,6.106788857046,623
33,2551117,AVL,"Merl, Parc Quai 1",SEPT117,busStation,49.6073158978289,6.10990067366653,923
34,1940234,AVL,Orval Quai 2,LONG234,busStation,49.6058403700221,6.10198648734305,913
35,8077192,AVL,"Bertrange, Richterwee Quai 2",LUXE192,busStation,49.6072137494642,6.0704379822113,64
36,1940310,AVL,Laang Heck Quai 2,LONG310,busStation,49.6053441861807,6.09726768132765,304
38,1940382,AVL,St Hubert Quai 2,LONG382,busStation,49.6038804185171,6.09271729786775,998
41,8077083,AVL,"Bertrange, Montereale Quai 1",LUXE083,busStation,49.6102677433078,6.06315245030231,900
43,8077039,AVL,"Bertrange, Kierfecht Quai 1",LUXE039,busStation,49.6119392399692,6.05812303592533,70
44,8079901,AVL,"Bertrange, Gemeng Quai 1",LEUD901,busStation,49.6097523117013,6.05032180292844,839
46,8077902,AVL,"Bertrange, Gemeng Quai 2",LUXE902,busStation,49.6107834041121,6.05124251780036,538
47,8077052,AVL,"Bertrange, Kierfecht Quai 2",LUXE052,busStation,49.6118537893315,6.05865430102851,979
48,8077240,AVL,"Bertrange, Fleuri Quai 2",LUXE240,busStation,49.6052512036851,6.07571923227305,458
51,1941265,AVL,Laang Heck Quai 1,LONG265,busStation,49.6053909398709,6.09841389612122,541
52,2551067,AVL,Franciscaines Quai 1,SEPT067,busStation,49.6082825553264,6.11330449837377,767
2,8080099,AVL,"Helfent, City Concorde Quai 1",LONG099,busStation,49.6006206389715,6.06587790604302,85
7,8079096,AVL,"Bertrange, Dicks Quai 1",LEUD096,busStation,49.6043093136958,6.05243623561269,365
9,8080075,AVL,"Helfent, Automobile Club Quai 1",LONG075,busStation,49.6012658848194,6.0693273835434,136
10,8080902,AVL,Helfenterbruck Quai 2,LONG902,busStation,49.6036401090377,6.07818279877168,512
45,8080010,AVL,"Helfenterbruck, Pletzer",LONG010,busStation,49.6035663963703,6.07526637396078,241
46,8080054,AVL,"Helfent, Automobile Club Quai 2",LONG054,busStation,49.6013055458094,6.06911737162246,266
48,8080080,AVL,"Helfent, City Concorde Quai 2",LONG080,busStation,49.6006712460209,6.06539039631656,722
49,8079117,AVL,"Bertrange, Dicks Quai 2",LEUD117,busStation,49.6051297385529,6.05215139441589,270
2,1211081,AVL,Baden-Powell,BADE081,busStation,49.5999245780739,6.15029882321682,334
13,1731904,AVL,Léon XIII Quai 4,HESP904,busStation,49.596413497866,6.13781170334921,810
63,1731903,AVL,Léon XIII Quai 3,HESP903,busStation,49.59638825759,6.1378823850147,803
64,1456090,AVL,Chalop,EGAL090,busStation,49.6004420054546,6.14975649858973,334
28,1430903,AVL,Geesseknäppchen/Süd Q.3,DUPO903,busStation,49.6014653074335,6.1137488436919,795
11,1750917,AVL,Lycée de Garçons,HUGO917,busStation,49.6200775169904,6.12271580833251,551
25,1331083,AVL,Stäreplaz / Étoile Quai 5,CHAR083,busStation,49.6124645922663,6.11902462081005,268
44,1542903,AVL,Square André Quai 3,FRES903,busStation,49.623401704219,6.11855926163549,657
1,2273020,AVL,Rue de l'Ouest Quai 2,OUES020,busStation,49.6150530634435,6.09554138109624,856
3,8081136,AVL,"Bertrange, Waassertuerm Quai 1",MAME136,busStation,49.6211647107591,6.04803983399566,889
4,8030006,AVL,"Strassen, Kiem Quai 1",KIEM006,busStation,49.6185433709507,6.07802495827526,288
8,2273025,AVL,Rue de l'Ouest Quai 1,OUES025,busStation,49.6146717332368,6.09647789280931,29
12,8030096,AVL,"Strassen, Michel Angelo Quai 1",KIEM096,busStation,49.6166130802826,6.08709915832801,985
15,8030050,AVL,"Strassen, Réimerwee Quai 1",KIEM050,busStation,49.6176773034539,6.08256315350933,493
17,8030126,AVL,"Strassen, Les Aubépines Quai 1",KIEM126,busStation,49.616010058326,6.09030593829181,586
19,1845017,AVL,Glaesener-Hartmann Quai 1,CHAR017,busStation,49.611531227139,6.10218877117044,817
20,8041212,AVL,"Bertrange, Pesch",ROMA212,busStation,49.6176305521659,6.05339069178621,881
21,8041168,AVL,"Strassen, Riedgen",ROMA168,busStation,49.6181357927525,6.05733428743016,419
30,8041052,AVL,"Strassen, Grande-Duchesse Charlotte",ROMA052,busStation,49.6191044306087,6.07210630976543,226
37,8081080,AVL,"Bertrange, Millewee Quai 2",MAME080,busStation,49.6180725455378,6.04814370557059,42
41,8030039,AVL,"Strassen, Réimerwee Quai 2",KIEM039,busStation,49.6179196737761,6.08182863424751,999
47,8030005,AVL,"Strassen, Kiem Quai 2",KIEM005,busStation,49.6185886349243,6.07803609653363,828
49,1845026,AVL,Glaesener-Hartmann Quai 2,CHAR026,busStation,49.6116037143563,6.10113224677104,758
51,8030141,AVL,"Strassen, Les Aubépines Quai 2",KIEM141,busStation,49.6160477294329,6.0903729252076,872
52,8030101,AVL,"Strassen, Michel Angelo Quai 2",KIEM101,busStation,49.6167225473861,6.08680185103004,643
54,8041132,AVL,"Strassen, Chapelle",ROMA132,busStation,49.6186271175431,6.06392359909795,432
4,1413902,AVL,Eecher Plaz Quai 2,DARG902,busStation,49.6282093010536,6.13064325926289,732
26,1115998,AVL,École Européenne (fiktiv1),ADEN900,busStation,49.6264016068989,6.15214648663577,654
27,1115999,AVL,École Européenne,ADEN999,busStation,49.6264016068989,6.15214648663577,94
30,1115902,AVL,École Européenne Quai 2,ADEN902,busStation,49.6264016068989,6.15214648663577,417
9,1647044,AVL,"Neudorf, Kierfecht Quai 1",GRUN044,busStation,49.6265088905144,6.17486669458157,6
36,1647084,AVL,Grünewald Quai 1,GRÜN084,busStation,49.6285860578811,6.1774056195089,948
43,1115901,AVL,École Européenne Quai 1,ADEN901,busStation,49.6265803866904,6.15173442969975,916
51,1647079,AVL,Grünewald Quai 2,GRÜN079,busStation,49.6283087849105,6.17710311137424,560
52,1647049,AVL,"Neudorf, Kierfecht Quai 2",GRUN049,busStation,49.6261719666992,6.17433223207225,227
25,1650901,AVL,Bragance Quai 3,GUIL901,busStation,49.6074688289078,6.11458469048876,969
12,1115903,AVL,École Européenne Quai 3,ADEN903,busStation,49.6263317814876,6.15223365504428,188
6,1713089,AVL,Englebert Neveu Quai 1,HAMM089,busStation,49.6058077380042,6.15283504717831,984
8,1326091,AVL,Kofferfabrick Quai 1,CHAR091,busStation,49.6009559702893,6.14506178368277,916
13,1713077,AVL,Montmédy Quai 1,HAMM077,busStation,49.6041272356681,6.14779729906251,623
14,1713090,AVL,Englebert Neveu Quai 2,HAMM090,busStation,49.6056829890743,6.15288384777719,859
15,1326047,AVL,Gabriel Lippmann Quai 1,CHAR047,busStation,49.5993420968912,6.14273382331989,88
43,1713078,AVL,Montmédy Quai 2,HAMM078,busStation,49.6040572592176,6.14933793667603,875
51,1343902,AVL,Clausener Bréck Quai 2,CLAU902,busStation,49.6136126585188,6.14318661928448,910
53,1326048,AVL,Gabriel Lippmann Quai 2,CHAR048,busStation,49.5994290940169,6.14297788312621,716
54,1326098,AVL,Kofferfabrick Quai 2,CHAR098,busStation,49.6009310668162,6.1451462904589,65
1,1269901,AVL,École Ste Sophie Quai 1,BUSB901,busStation,49.6190481127162,6.15200767485773,252
7,2311900,AVL,LT du Centre Quai 2,PAST900,busStation,49.6245116879174,6.11508696921405,812
25,1750060,AVL,Hall Victor Hugo,HUGO060,busStation,49.6207073793407,6.12272023194612,614
2,8080901,AVL,Helfenterbruck Quai 1,LONG901,busStation,49.6037026406171,6.07816521590785,419
38,1831141,AVL,Melusina,JACO141,busStation,49.6113901588187,6.14135064586619,713
18,2667071,AVL,Rue Verte Quai 3,VERT071,busStation,49.5900675519922,6.11558443194288,829
9,2133053,AVL,Nic Martha Quai 3,MART053,busStation,49.5939087534685,6.14858747843219,631
11,2133021,AVL,Jeanne d'Arc,MART021,busStation,49.5967671264994,6.14775633424066,537
23,1160921,AVL,Al Molkerei Quai 2,AVRA921,busStation,49.6053304637715,6.13641716509812,337
25,2449952,AVL,Hamilius CN Quai 2,ROYA952,busStation,49.6109542699635,6.12593920850378,203
2,2311001,AVL,Parking Glacis,PAST001,busStation,49.6161424024065,6.12365384436128,44
3,1212904,AVL,Badanstalt Quai 4,BAIN904,busStation,49.6134144473205,6.12936656821581,273
5,1212018,AVL,Forum Royal,BAIN018,busStation,49.6131245878293,6.12711295659195,372
2,2410041,AVL,"Strassen, Stand de Tir Quai 1",RECK041,busStation,49.6242858333056,6.10065619132228,944
3,2410123,AVL,"prov. Reckenthal, Gäertnerei",RECK123,busStation,49.6248118090056,6.09257879583834,43
4,2410071,AVL,"Strassen, Steekaul Quai 1",RECK071,busStation,49.6241341688776,6.09711995526241,163
6,2440903,AVL,Stäreplaz / Étoile Quai 3,ROLL903,busStation,49.6139154059769,6.11875903882281,121
8,2410026,AVL,Stand de Tir Quai 2,RECK026,busStation,49.6243058503708,6.10037802937609,363
9,2410070,AVL,Steekaul Quai 2,RECK070,busStation,49.6241805110375,6.09753265827155,276
1,69750101,CFL_B,"RAMELDANGE, Op der Bunn",RABUNN01,busStation,49.6612343836671,6.22953815995888,248
2,16460201,CFL_B,"SENNINGERBERG, Breedewues",SEBREE01,busStation,49.6552940170017,6.22454062222543,967
3,61650201,CFL_B,"ERNSTER, Duerfplaz",ERDUER01,busStation,49.6796247566582,6.24809650242973,120
4,69850201,CFL_B,"NIEDERANVEN, Stade Jos Becker",HOSTAD01,busStation,49.6584890490263,6.22834990719182,210
5,61650301,CFL_B,"ERNSTER, Engelshaff",ERENGE01,busStation,49.673437047708,6.24400996224124,188
6,69850301,CFL_B,"HOSTERT, Charlys Gare",HOCHAG01,busStation,49.6584178212064,6.23176304893024,201
7,69730101,CFL_B,"RAMELDANGE, Beiebierg",RABEIE01,busStation,49.6696408717352,6.23421676936587,927
8,69910101,CFL_B,"RAMELDANGE, Beim Bësch",RABËSC01,busStation,49.66608599185,6.23039898445911,436
9,61650202,CFL_B,"ERNSTER, Duerfplaz",ERDUER02,busStation,49.6794037740835,6.2482614875385,954
10,61650302,CFL_B,"ERNSTER, Engelshaff",ERENGE02,busStation,49.6743434573229,6.24391711575592,428
11,69730102,CFL_B,"RAMELDANGE, Beiebierg",RABEIE02,busStation,49.6694179745008,6.2339244703016,211
12,69910102,CFL_B,"RAMELDANGE, Beim Bësch",RABËSC02,busStation,49.6656777715238,6.22988163059521,322
13,69750102,CFL_B,"RAMELDANGE, Op der Bunn",RABUNN02,busStation,49.6615355334383,6.22934088080579,691
14,69850302,CFL_B,"HOSTERT, Charlys Gare",HOCHAG02,busStation,49.6584091682294,6.23177739826697,388
15,69850202,CFL_B,"NIEDERANVEN, Stade Jos Becker",HOSTAD02,busStation,49.6586182057341,6.22773280654084,118
16,16460202,CFL_B,"SENNINGERBERG, Breedewues",SEBREE02,busStation,49.6549223523032,6.2244232035055,419
1,97760101,CFL_B,"WILWERWILTZ, Gare",WWGARE01,busStation,49.9883984121258,6.00083728630537,932
2,90440101,CFL_B,"ETTELBRUCK, Gare routière",ETGAR101,busStation,49.8488653211328,6.1083532066853,450
3,97460301,CFL_B,"DRAUFFELT, Park&Rail",DRP&R_01,busStation,50.0170226833433,6.00843648322648,784
4,97070401,CFL_B,"CLERVAUX, Gare ferroviaire",CLGARP01,busStation,50.061453890747,6.02449551714174,244
5,96630201,CFL_B,"KAUTENBACH, Op der Gare",KAOGAR01,busStation,49.9490640928573,6.02165824990558,776
6,97760103,CFL_B,"WILWERWILTZ, Bei der Barriär",WWBAR01,busStation,49.9883530514573,5.99977965544572,725
7,99060101,CFL_B,"TROISVIERGES, Gare",TRGARE01,busStation,50.1193865404277,5.99128312582143,81
8,97760102,CFL_B,"WILWERWILTZ, Gare",WWGARE02,busStation,49.9886624576354,6.00061155028134,108
9,97760104,CFL_B,"WILWERWILTZ, Bei der Barriär",WWBAR02,busStation,49.988318534297,5.99948878453119,91
1,16160111,CFL_B,"LUXEMBOURG, Gare Routière CFL",LUGAR101,busStation,49.5992073223463,6.13328798962664,678
1,32600101,CFL_B,"BETTEMBOURG, Gare",BEGA_E01,busStation,49.5164722904632,6.10213480707849,335
3,33200101,CFL_B,"BIVANGE, Schoul",BISCHO01,busStation,49.540998831355,6.13578512203144,895
4,48300101,CFL_B,"RODANGE, Gare",ROGARE01,busStation,49.5508710909263,5.84423745254074,344
5,12820101,CFL_B,"GASPERICH, Hildegard von Bingen",LUGHIB01,busStation,49.5825956609244,6.12189208656106,938
6,12820102,CFL_B,"GASPERICH, Hildegard von Bingen",LUGHIB02,busStation,49.5822418284021,6.12213430320926,415
7,47340101,CFL_B,"PETANGE, Gare",PEGARE01,busStation,49.5545132119008,5.87897698351943,82
8,47510101,CFL_B,"PETANGE, Porte Lamadelaine",PEPORT01,busStation,49.5542272584692,5.86441919592837,731
9,16160113,CFL_B,"LUXEMBOURG, Gare Routière CFL",LUGAR103,busStation,49.5986507696586,6.13297460978573,72
10,33200102,CFL_B,"BIVANGE, Schoul",BISCHO02,busStation,49.5412136594659,6.13610435570583,975
11,47510102,CFL_B,"PETANGE, Porte Lamadelaine",PEPORT02,busStation,49.5540790591651,5.8639308407938,10
12,41710109,CFL_B,"ESCH-SUR-ALZETTE, Goar quai A3",ESGOAQA3,busStation,49.4943966163458,5.98577508402721,278
13,38500202,CFL_B,"SCHIFFLANGE, Stadhaus",SCSTAD02,busStation,49.5057324383011,6.01141002094577,810
14,33800202,CFL_B,"NOERTZANGE, Am Duerf",NOADUE02,busStation,49.5083078436475,6.05743967764869,1
15,33210101,CFL_B,"BERCHEM, Gare",BMGARE01,busStation,49.542486774538,6.13374869429916,30
1,16160112,CFL_B,"LUXEMBOURG, Gare Routière CFL",LUGAR102,busStation,49.5992235762783,6.13321782864294,491
2,13500101,CFL_B,"HOWALD, P&R Sud",HOP&RS01,busStation,49.578746562764,6.12737621655512,509
1,8200100,CFL,Luxembourg,,railStation,48.9301705398904,5.07700610937251,402
5,8200120,CFL,Ettelbruck,,railStation,49.8475965543729,6.10726031358075,410
7,8200110,CFL,Mersch,,railStation,49.7518458652351,6.11036753506619,592
8,8200102,CFL,Pfaffenthal-Kirchberg,,railStation,49.6189367592643,6.13293293875686,103
9,8200136,CFL,Troisvierges,,railStation,50.1192287839248,5.99109714165658,180
11,8200134,CFL,Clervaux,,railStation,50.0615131509308,6.02470146656656,49
13,8270350,CFL,Dommeldange,,railStation,49.6345344009853,6.136476839738,176
14,8270630,CFL,Kautenbach,,railStation,49.9487331511004,6.02208298877712,253
15,8270480,CFL,Goebelsmühle,,railStation,49.9210955024613,6.05335475225416,453
16,8270730,CFL,Michelau,,railStation,48.9301705398904,5.07700610937251,915
1,8270710,CFL,Merkholtz,,railStation,49.956871190052,5.981951184717,167
5,8200142,CFL,Wiltz,,railStation,49.9665994987783,5.92831535206522,20
10,8271143,CFL,Paradiso,,railStation,48.9301705398904,5.07700610937251,477
44,8271060,CFL,Walferdange,,railStation,48.9301705398904,5.07700610937251,183
47,8200112,CFL,Heisdorf,,railStation,48.9301705398904,5.07700610937251,140
50,8270670,CFL,Lorentzweiler,,railStation,49.6983444248608,6.14042349605254,907
53,8270660,CFL,Lintgen,,railStation,48.9301705398904,5.07700610937251,931
56,8270320,CFL,Cruchten,,railStation,49.7963701757422,6.12018299435432,11
59,8270300,CFL,Colmar-Berg,,railStation,48.9301705398904,5.07700610937251,255
62,8270950,CFL,Schieren,,railStation,48.9301705398904,5.07700610937251,78
69,8200126,CFL,Diekirch,,railStation,48.9301705398904,5.07700610937251,406
73,8200940,CFL,Rodange,,railStation,48.9301705398904,5.07700610937251,732
77,8200143,CFL,Lamadelaine,,railStation,48.9301705398904,5.07700610937251,303
80,8200930,CFL,Pétange,,railStation,49.554247906478,5.87881412561115,626
84,8270060,CFL,Bascharage-Sanem,,railStation,48.9301705398904,5.07700610937251,809
87,8270960,CFL,Schouweiler,,railStation,48.9301705398904,5.07700610937251,388
90,8270340,CFL,Dippach-Reckange,,railStation,,,177
93,8270650,CFL,Leudelange,,railStation,48.9301705398904,5.07700610937251,928
96,8270580,CFL,Hollerich,,railStation,49.5955942375243,6.12075289340816,538
99,8270280,CFL,Cents-Hamm,,railStation,49.6141155362401,6.16288726440555,867
102,8270930,CFL,Sandweiler-Contern,,railStation,49.5991261250696,6.21278372214124,300
105,8270830,CFL,Oetrange,,railStation,48.9301705398904,5.07700610937251,318
108,8270780,CFL,Munsbach,,railStation,48.9301705398904,5.07700610937251,8
111,8270890,CFL,Roodt,,railStation,49.6665690771808,6.30302750706254,822
114,8270210,CFL,Betzdorf,,railStation,48.9301705398904,5.07700610937251,242
117,8271080,CFL,Wecker,,railStation,49.6999707170892,6.38650443293856,140
120,8270690,CFL,Manternach,,railStation,48.9301705398904,5.07700610937251,32
123,8270720,CFL,Mertert,,railStation,48.9301705398904,5.07700610937251,111
126,8200340,CFL,Wasserbillig,,railStation,49.7128371857731,6.499407522533,368
130,8003042,CFL,Igel,,railStation,,,926
131,8005905,CFL,Trier-Süd,,railStation,,,715
132,8000134,CFL,Trier-Hbf,,railStation,,,425
133,8270180,CFL,Bertrange-Strassen,,railStation,48.9301705398904,5.07700610937251,505
136,8270680,CFL,Mamer,,railStation,48.9301705398904,5.07700610937251,418
139,8270270,CFL,Capellen,,railStation,48.9301705398904,5.07700610937251,579
142,8200520,CFL,Kleinbettingen,,railStation,49.6395240335976,5.91722147481587,751
146,8276932,CFL,Mamer-Lycée,,railStation,48.9301705398904,5.07700610937251,430
149,8005510,CFL,Sehlem (Kr Wittlich),,railStation,,,887
150,8270140,CFL,Belval-Université,,railStation,48.9301700758957,5.07699248854155,532
153,8200603,CFL,Bettembourg,,railStation,49.5165845662461,6.10158925992727,96
158,8200002,CFL,Dudelange-Burange,,railStation,48.9301700758957,5.07699248854155,56
159,8200613,CFL,Dudelange-Ville,,railStation,49.4825940218587,6.0832991905675,845
160,8200003,CFL,Dudelange-Centre,,railStation,49.4787244421764,6.0821898815729,496
161,8270370,CFL,Dudelange-Usines,,railStation,48.9301700758957,5.07699248854155,691
163,8270910,CFL,Rumelange,,railStation,48.9301700758957,5.07699248854155,110
164,8271010,CFL,Tétange,,railStation,48.9301700758957,5.07699248854155,110
165,8270640,CFL,Kayl,,railStation,48.9301700758957,5.07699248854155,51
166,8270800,CFL,Noertzange,,railStation,48.9301705398904,5.07700610937251,797
170,8200640,CFL,Esch-sur-Alzette,,railStation,49.4939424529183,5.98526433215451,330
174,8270050,CFL,Audun-le-Tiche,,railStation,48.9301700758957,5.07699248854155,566
175,8200250,CFL,Howald,,railStation,,,704
178,8270160,CFL,Berchem,,railStation,48.9301705398904,5.07700610937251,92
181,8200630,CFL,Schifflange,,railStation,48.9301705398904,5.07700610937251,370
184,8270135,CFL,Belval-Lycée,,railStation,,,25
187,8270130,CFL,Belval-Rédange,,railStation,48.9301705398904,5.07700610937251,641
190,8270150,CFL,Belvaux-Soleuvre,,railStation,48.9301705398904,5.07700610937251,6
193,8270820,CFL,Oberkorn,,railStation,48.9301705398904,5.07700610937251,715
196,8200920,CFL,Differdange,,railStation,48.9301705398904,5.07700610937251,382
199,8270790,CFL,Niederkorn,,railStation,48.9301705398904,5.07700610937251,831
202,8000379,CFL,Wittlich Hbf,,railStation,,,391
203,8005260,CFL,Salmtal,,railStation,,,753
204,8002817,CFL,Hetzerath,,railStation,,,657
205,8002018,CFL,Föhren,,railStation,,,451
206,8005476,CFL,Schweich,,railStation,,,147
207,8004910,CFL,Quint,,railStation,,,261
208,8001688,CFL,Ehrang Ort,,railStation,,,887
209,8000370,CFL,Ehrang,,railStation,,,133
210,8004784,CFL,Pfalzel,,railStation,,,809
56,8000331,CFL,Andernach,,railStation,,,661
103,8000206,CFL,Koblenz-Hbf,,railStation,,,797
104,8003350,CFL,Kobern-Gondorf,,railStation,,,497
105,8003179,CFL,Treis-Karden,,railStation,,,235
106,8001340,CFL,Cochem,,railStation,,,799
107,8001267,CFL,Bullay,,railStation,,,791
117,8000085,CFL,DUESSELDORF HBF,,railStation,,,119
118,8000207,CFL,Köln-Hbf,,railStation,,,909
119,8000044,CFL,Bonn,,railStation,,,408
120,8000310,CFL,Remagen,,railStation,,,984
1,69160201,RGTR,"ROODT-SUR-SYRE, Z.I. Rothoicht",ROZ.I.01,busStation,49.6574998678788,6.29258152729652,224
2,69500101,RGTR,"OLINGEN, rue de Rodenbourg",OLRODE01,busStation,49.6801769135096,6.31371230973552,519
3,69100101,RGTR,"ROODT-SUR-SYRE, Op der Gare",ROOGAR01,busStation,49.6663569466035,6.30280361899728,719
4,69500201,RGTR,"OLINGEN, Beim leschte Wollef",OLWOLL01,busStation,49.6818535460855,6.30882271210247,933
5,69500202,RGTR,"OLINGEN, Beim leschte Wollef",OLWOLL02,busStation,49.681762733891,6.30878613425344,585
6,61170201,RGTR,"JUNGLINSTER, Op der Gare",JUOGAR01,busStation,49.7114470382204,6.25237408120515,66
7,76500101,RGTR,"HEFFINGEN, Centre",HECENT01,busStation,49.7703923800263,6.2399984536968,958
8,92540201,RGTR,"DIEKIRCH, Beim Waasserbaseng",DIWAAS01,busStation,49.8604080320835,6.16405178928727,448
9,92210101,RGTR,"DIEKIRCH, An der Kléck",DIKLÉC01,busStation,49.8688020819195,6.1721754594052,576
10,93700101,RGTR,"GILSDORF, Bei der Schoul",GISCHO01,busStation,49.8652484907918,6.1795505388894,431
11,92800101,RGTR,"DIEKIRCH, Kluuster",DIKLUU01,busStation,49.8695458830811,6.15808806643408,97
12,92540202,RGTR,"DIEKIRCH, Beim Waasserbaseng",DIWAAS02,busStation,49.8610143295424,6.16236024210336,964
13,76500102,RGTR,"HEFFINGEN, Centre",HECENT02,busStation,49.7703977266469,6.23984535935938,635
14,69500102,RGTR,"OLINGEN, rue de Rodenbourg",OLRODE02,busStation,49.6802006812728,6.31434875013093,278
15,69140101,RGTR,"ROODT-SUR-SYRE, Bowengsbierg",ROBOWE01,busStation,49.6664475522806,6.30128783847068,644
1,23240102,RGTR,"LUX Centre, Fondation Pescatore",LUFONP02,busStation,49.6157398231807,6.12664063853821,422
2,12200301,RGTR,"BERELDANGE, rue du Pont",BERUEP01,busStation,49.6496669002243,6.12778768852828,328
3,75400302,RGTR,"ROLLINGEN, Lëtzebuergerstooss",ROLËTZ02,busStation,49.7351938068179,6.11686768455148,934
4,11150101,RGTR,"LUX Kirchberg, B.E.I.",LUKBEI01,busStation,49.6205101946714,6.13907192192905,23
5,14990202,RGTR,"LUX Kirchberg, Rout Bréck-Pafendall Quai 2",LUKRBR02,busStation,49.6184010655632,6.13527682794834,154
6,12120201,RGTR,"LUX Centre, Badanstalt",LUBADA01,busStation,49.6135405574229,6.12937300087997,197
7,12200201,RGTR,"LUX Beggen, Bastogne",LUBAST01,busStation,49.6458938633994,6.12837007803922,215
8,14600101,RGTR,"LUX Eich, Eecher Klinick",LUEKLI01,busStation,49.6315330569457,6.13443683830206,562
9,12210101,RGTR,"LUX Dommeldange, Emile Metz",DOEMIL01,busStation,49.6353662122631,6.13410093842496,170
10,72200101,RGTR,"WALFERDANGE, Gemenge Plaz",WAGEMP01,busStation,49.6591553719625,6.13130317542468,792
11,73730102,RGTR,"LORENTZWEILER, Gare",LOGARE02,busStation,49.6979241758721,6.14089200222858,652
12,75350101,RGTR,"MERSCH, Gare quai 1",MEGARQ01,busStation,49.7519857860597,6.11020647971462,902
13,72200201,RGTR,"HELMSANGE, Tricentenaire",HETRIC01,busStation,49.6622013495771,6.13332758493566,64
14,72200301,RGTR,"HELMSANGE, Mercatoris",HEMERC01,busStation,49.6654268359381,6.13424672779293,716
15,72200401,RGTR,"HEISDORF, Millewee",HEMILW01,busStation,49.668815386057,6.1352118437334,557
16,73300301,RGTR,"HEISDORF, Bei der Parkmauer",HEPARK01,busStation,49.6711266913225,6.13590769903014,316
17,73730101,RGTR,"LORENTZWEILER, Gare",LOGARE01,busStation,49.6987630457312,6.14098144011915,584
18,73300201,RGTR,"HEISDORF, Klouster",HEKLOU01,busStation,49.6744646752088,6.13737505998439,44
19,72200402,RGTR,"HEISDORF, Millewee",HEMILW02,busStation,49.668703816555,6.13506592801733,151
20,73740301,RGTR,"BOFFERDANGE, Bouferknupp",BOBOUF01,busStation,49.6829802006296,6.13830283088475,581
21,12200202,RGTR,"LUX Beggen, Bastogne",LUBAST02,busStation,49.6458990692478,6.12821736947172,336
22,72200202,RGTR,"HELMSANGE, Tricentenaire",HETRIC02,busStation,49.6622145156467,6.133132779587,856
23,73740201,RGTR,"BOFFERDANGE, Maison de Retraite",BOMAIS01,busStation,49.6897388345838,6.14058210698178,656
24,73740101,RGTR,"HELMDANGE, Fautelfiels",HEFAUT01,busStation,49.6943820112486,6.14098903014652,853
25,75400301,RGTR,"ROLLINGEN, Lëtzebuergerstooss",ROLËTZ01,busStation,49.7360492819577,6.11617845846985,234
26,74500101,RGTR,"LINTGEN, An der Kléck",LIKLÉC01,busStation,49.7144161669313,6.12788029320053,725
27,14600102,RGTR,"LUX Eich, Eecher Klinick",LUEKLI02,busStation,49.6320754083317,6.13490362252266,363
28,74500201,RGTR,"LINTGEN, Kreizung",LIKREI01,busStation,49.7203950709611,6.12519618137615,169
29,75400201,RGTR,"ROLLINGEN, Veräinsbau",ROVERÄ01,busStation,49.7410176040398,6.11374594131172,687
30,23240101,RGTR,"LUX Centre, Fondation Pescatore",LUFONP01,busStation,49.6156644681717,6.12686661091265,553
31,75400101,RGTR,"ROLLINGEN, Blannenheem",ROBLAN01,busStation,49.7445448188152,6.11305061033795,67
32,75400102,RGTR,"ROLLINGEN, Blannenheem",ROBLAN02,busStation,49.7445047379157,6.11288639614123,959
33,75400202,RGTR,"ROLLINGEN, Veräinsbau",ROVERÄ02,busStation,49.7412857125418,6.11367449587512,711
34,74500202,RGTR,"LINTGEN, Kreizung",LIKREI02,busStation,49.7203011094898,6.12503522221369,596
35,74500102,RGTR,"LINTGEN, An der Kléck",LIKLÉC02,busStation,49.7139652885546,6.12783753415444,654
36,73740102,RGTR,"HELMDANGE, Fautelfiels",HEFAUT02,busStation,49.6939390914159,6.14090408688695,779
37,73740202,RGTR,"BOFFERDANGE, Maison de Retraite",BOMAIS02,busStation,49.689066198601,6.14030265530243,319
38,73740302,RGTR,"BOFFERDANGE, Bouferknupp",BOBOUF02,busStation,49.6815893166766,6.13771901733819,777
39,73300202,RGTR,"HEISDORF, Klouster",HEKLOU02,busStation,49.6745334595635,6.13724625351378,996
40,73300302,RGTR,"HEISDORF, Bei der Parkmauer",HEPARK02,busStation,49.6711968447339,6.13583426672089,353
41,72200302,RGTR,"HELMSANGE, Mercatoris",HEMERC02,busStation,49.6662567286585,6.13433654319956,787
42,72200102,RGTR,"WALFERDANGE, Gemenge Plaz",WAGEMP02,busStation,49.659141019852,6.13036164191978,365
43,12200302,RGTR,"LUX Beggen, rue du Pont",LURUEP02,busStation,49.6489365060208,6.12771985492341,929
44,12210102,RGTR,"LUX Dommeldange, Emile Metz",DOEMIL02,busStation,49.6349135431291,6.13434914870601,702
45,12120202,RGTR,"LUX Centre, Badanstalt",LUBADA02,busStation,49.6135112671015,6.12891782001017,918
46,14990201,RGTR,"LUX Kirchberg, Rout Bréck-Pafendall Quai 1",LUKRBR01,busStation,49.6183037972889,6.13607180685552,82
47,11150102,RGTR,"LUX Kirchberg, B.E.I.",LUKBEI02,busStation,49.6212815579688,6.13970526002648,127
1,74320101,RGTR,"GOSSELDANGE, Op der Uelzechtbréck",GOUELZ01,busStation,49.7198323759942,6.1181250111952,291
3,73070201,RGTR,"STEINSEL, Laval",SLLAVA01,busStation,49.6697980462032,6.11971232991017,445
6,72540102,RGTR,"BERELDANGE, Elterstrachen",BEELTE02,busStation,49.6608760627377,6.12632356425578,898
7,73950101,RGTR,"HUNSDORF, Eglise",HUEGLI01,busStation,49.6965701604045,6.13016743710273,295
10,14500101,RGTR,"LUX Limpertsberg, Crispinus",LULCRI01,busStation,49.619891878164,6.13045356910001,738
11,72400202,RGTR,"BERELDANGE, Schoul",BESCHO02,busStation,49.653335910196,6.12736374966719,958
12,14500201,RGTR,"LUX Eich, Octroi",LUEOCT01,busStation,49.6221850343431,6.13041572304498,899
13,14130101,RGTR,"LUX Eich, Eecher Plaz",LUEEEP01,busStation,49.6277654073231,6.13015691903431,562
14,73240101,RGTR,"MULLENDORF, Op der Muschel",MUMUSC01,busStation,49.682666035113,6.12961394471979,670
16,75700201,RGTR,"MERSCH, Maartplaz",MEMAAR01,busStation,49.7476531156855,6.10386928824112,552
19,12210201,RGTR,"LUX Beggen, Henri Heymanns",LUBHEN01,busStation,49.6381324103173,6.13209608362483,345
20,12200101,RGTR,"LUX Beggen, Binnchen",LUBINN01,busStation,49.6418918808579,6.130240368662,747
21,12200401,RGTR,"LUX Beggen, Kierch",LUBKIR01,busStation,49.6435815504533,6.12944827002604,879
23,73070301,RGTR,"STEINSEL, Um Gruef",SLGRUE01,busStation,49.675505247626,6.12238330754626,63
24,72400201,RGTR,"BERELDANGE, Schoul",BESCHO01,busStation,49.6532581525905,6.12749304147333,53
26,72400101,RGTR,"BERELDANGE, Police",BEPOLI01,busStation,49.6573700373269,6.12751411561806,986
27,72540101,RGTR,"BERELDANGE, Elterstrachen",BEELTE01,busStation,49.660996030259,6.12572055449444,69
28,12210202,RGTR,"LUX Beggen, Henri Heymanns",LUBHEN02,busStation,49.6378373317235,6.13216883686451,83
29,73070102,RGTR,"STEINSEL, Gonneschhaff",SLGONN02,busStation,49.671711414989,6.12032007879843,569
30,73170202,RGTR,"STEINSEL, Michel Rodange quai 2",SLMICH02,busStation,49.6770276690586,6.12463634816557,238
32,14500102,RGTR,"LUX Limpertsberg, Crispinus",LULCRI02,busStation,49.6188188068582,6.12999044631839,381
33,74320401,RGTR,"GOSSELDANGE, Rte de Schoenfels",GORSCH01,busStation,49.7280488471517,6.11462663472311,91
34,73240102,RGTR,"MULLENDORF, Op der Muschel",MUMUSC02,busStation,49.6826895504623,6.12947390710869,527
35,75350109,RGTR,"MERSCH, Gare quai 9",MEGARQ09,busStation,49.7525973215003,6.110197884222,909
36,75700202,RGTR,"MERSCH, Maartplaz",MEMAAR02,busStation,49.7475052263901,6.10371149531645,244
38,74320402,RGTR,"GOSSELDANGE, Rte de Schoenfels",GORSCH02,busStation,49.7280274264231,6.11448912374253,900
39,73170203,RGTR,"STEINSEL, Michel Rodange quai 3",SLMICH03,busStation,49.6769844729261,6.124708215163,902
41,73070302,RGTR,"STEINSEL, Um Gruef",SLGRUE02,busStation,49.6752675530945,6.12223098697348,759
42,73070101,RGTR,"STEINSEL, Gonneschhaff",SLGONN01,busStation,49.6715915330208,6.12020240383348,818
43,73070202,RGTR,"STEINSEL, Laval",SLLAVA02,busStation,49.6693464747018,6.11964198607504,417
45,72400102,RGTR,"BERELDANGE, Police",BEPOLI02,busStation,49.6561096808283,6.12711720147161,423
47,12200402,RGTR,"LUX Beggen, Kierch",LUBKIR02,busStation,49.6432056244015,6.12952580592895,327
48,12200102,RGTR,"LUX Beggen, Binnchen",LUBINN02,busStation,49.6412844464876,6.13041463292539,230
51,14130102,RGTR,"LUX Eich, Eecher Plaz",LUEEEP02,busStation,49.627457977452,6.12973181032674,643
52,14500202,RGTR,"LUX Eich, Octroi",LUEOCT02,busStation,49.6228736648943,6.13025061254831,889
1,90440202,RGTR,"ETTELBRUCK, Gare routière 2",ETGAR202,busStation,49.8481676381263,6.10707316398255,741
2,90500101,RGTR,"ETTELBRUCK, Apdikt Petry",ETAPPE01,busStation,49.8458478022807,6.09848892144617,216
3,90850201,RGTR,"ETTELBRUCK, Hall Omnisports",ETOMNI01,busStation,49.8410108680371,6.09322831828838,259
4,90120301,RGTR,"ETTELBRUCK, rue du Deich (CHNP)",ETDEIC01,busStation,49.8438919430391,6.09654719342886,47
5,90850101,RGTR,"ETTELBRUCK, Zone Industrielle",ETZ.I.01,busStation,49.8396468515211,6.0947985550012,111
6,91250601,RGTR,"SCHIEREN, Alen Atelier",SCATEL01,busStation,49.8299220265308,6.09552066327363,915
7,91250101,RGTR,"SCHIEREN, Uewerschieren",SCUEWE01,busStation,49.8277711107797,6.09620583989033,536
8,91250301,RGTR,"SCHIEREN, Porte de Schieren",SCPORT01,busStation,49.8246574348143,6.0958083324584,143
9,77330401,RGTR,"COLMAR-BERG, rue d'Ettelbruck",COETTE01,busStation,49.8128705533657,6.09789067879872,39
10,77300101,RGTR,"COLMAR-BERG, Piscine",COPISC01,busStation,49.8116057907909,6.09301720575049,486
11,77130101,RGTR,"WELSDORF, rue des Champs",WECHAM01,busStation,49.8174671849211,6.09177593130226,776
12,77340101,RGTR,"COLMAR-BERG, rue Martzen 1",COMART01,busStation,49.8182419321791,6.08680741779747,685
13,77340201,RGTR,"COLMAR-BERG, rue Martzen 2",COMARZ01,busStation,49.8164411030726,6.08638728744521,401
14,77300201,RGTR,"COLMAR-BERG, place Pemmers",COPEMM01,busStation,49.8137402004935,6.08702227746907,548
15,77300102,RGTR,"COLMAR-BERG, Piscine",COPISC02,busStation,49.8114487070285,6.09356880454862,545
16,77400502,RGTR,"COLMAR-BERG, Usines",COUSIS02,busStation,49.8047900013926,6.09207739216013,104
17,77400302,RGTR,"COLMAR-BERG, Raedelsboesch",CORAED02,busStation,49.7966374504824,6.09809738406721,625
18,77370102,RGTR,"COLMAR-BERG, Z.I. JEAN PIRET",COZ.I.02,busStation,49.8038652943036,6.10328056586042,79
19,77140101,RGTR,"COLMAR-BERG, Z.I. Rond-Point",COROPO01,busStation,49.8057902637851,6.10219257138751,314
20,77370101,RGTR,"COLMAR-BERG, Z.I. JEAN PIRET",COZ.I.01,busStation,49.8038538810544,6.10318394808691,169
21,77400301,RGTR,"COLMAR-BERG, Raedelsboesch",CORAED01,busStation,49.7967925928964,6.09818539021893,720
22,77330402,RGTR,"COLMAR-BERG, rue de l'Alzette",COALZE02,busStation,49.8127271764999,6.09791316214441,584
23,91250302,RGTR,"SCHIEREN, Porte de Schieren",SCPORT02,busStation,49.8246429511454,6.09594825918309,920
24,91250401,RGTR,"SCHIEREN, Neie Wee",SCNEIE01,busStation,49.8281345990436,6.09635094392221,586
25,91250602,RGTR,"SCHIEREN, Alen Atelier",SCATEL02,busStation,49.8299773160475,6.09557297924807,893
26,90850102,RGTR,"ETTELBRUCK, Zone Industrielle",ETZ.I.02,busStation,49.8396634234037,6.09474192035216,771
27,90850202,RGTR,"ETTELBRUCK, Hall Omnisports",ETOMNI02,busStation,49.8411217978425,6.09334685762258,735
28,90120302,RGTR,"ETTELBRUCK, rue du Deich (CHNP)",ETDEIC02,busStation,49.8438494667269,6.09664711942894,697
29,90640101,RGTR,"ETTELBRUCK, Ecole primaire",ETECOL01,busStation,49.8458423629821,6.09899007852324,825
1,93590101,RGTR,"BETTENDORF, Bleesbréck",BEBLEE01,busStation,49.8719198880176,6.1893924139952,949
2,93820202,RGTR,"MOESTROFF (DIEKIRCH), Bei der Bréck",MOBRÉC02,busStation,49.8689475907734,6.23975475121503,963
3,93820401,RGTR,"MOESTROFF (DIEKIRCH), Kiirch",MODIKI01,busStation,49.8657219030191,6.2384077861845,89
4,93820102,RGTR,"MOESTROFF (DIEKIRCH), Wangerten",MOWANG02,busStation,49.8717583163562,6.23841130950569,290
5,91470202,RGTR,"ERPELDANGE (ETTELBRUCK), An der Gewan",ERGEWA02,busStation,49.8582638343812,6.1129406294948,476
6,93550302,RGTR,"BETTENDORF, Beim Schlass",BESCHL02,busStation,49.8766638756628,6.22159368014592,759
7,91450202,RGTR,"ERPELDANGE (ETTELBRUCK), Beim Schlass",ERSCHL02,busStation,49.8599760941124,6.11269935575347,540
8,92340102,RGTR,"DIEKIRCH, Bei der Tirelbaach",DITIRE02,busStation,49.8644977404433,6.17458409741641,226
9,93550202,RGTR,"BETTENDORF, Gemeng",BEGEMG02,busStation,49.8761565192976,6.2173213924378,41
10,90470201,RGTR,"ETTELBRUCK, Poste",ETPOST01,busStation,49.8477369669713,6.10279992353022,193
11,90290101,RGTR,"WARKEN, Cité Bourschterbach",WACIBO01,busStation,49.860704851614,6.08718914802427,801
12,93590102,RGTR,"BETTENDORF, Bleesbréck",BEBLEE02,busStation,49.8718665400344,6.18904753038168,12
13,93550102,RGTR,"BETTENDORF, Elick",BEELIC02,busStation,49.8761656615889,6.21246262275453,747
14,93700202,RGTR,"GILSDORF, An der Kléck",GIKLÉC02,busStation,49.8696731117381,6.18133872767436,346
15,93700102,RGTR,"GILSDORF, Bei der Schoul",GISCHO02,busStation,49.8653759495656,6.17961269898299,417
16,93710201,RGTR,"GILSDORF, rue des Prés",GIRUEP01,busStation,49.8671476721216,6.1829193524327,988
17,93700201,RGTR,"GILSDORF, An der Kléck",GIKLÉC01,busStation,49.8696783300108,6.18192300781632,207
18,93700501,RGTR,"GILSDORF, Beim Kierfecht",GIKIER01,busStation,49.867695713128,6.18770311266748,32
19,92570202,RGTR,"DIEKIRCH, Rue Merten",DIMERT02,busStation,49.8650037271244,6.16877886468148,219
20,92420101,RGTR,"DIEKIRCH, Alexis Heck",DIALEX01,busStation,49.8682243209295,6.16216022019022,228
22,93550201,RGTR,"BETTENDORF, Gemeng",BEGEMG01,busStation,49.8760580332642,6.21734097687654,10
23,92330102,RGTR,"DIEKIRCH, Gare",DIGARE02,busStation,49.8645749669012,6.15311921320989,932
24,91450201,RGTR,"ERPELDANGE (ETTELBRUCK), Beim Schlass",ERSCHL01,busStation,49.8595124275077,6.11250435549623,870
25,92300101,RGTR,"DIEKIRCH, Lorentzwues",DILORE01,busStation,49.8600333156522,6.14513413700883,398
26,91600201,RGTR,"INGELDORF, Walebroch",INWALE01,busStation,49.8582840515805,6.13986591809494,751
27,91470302,RGTR,"ERPELDANGE (ETTELBRUCK), Laduno",ERLADU02,busStation,49.8535331254611,6.11696561069546,417
28,91600101,RGTR,"INGELDORF, Café de la Station",INCAFÉ01,busStation,49.8531159557536,6.13059835962779,682
29,93550301,RGTR,"BETTENDORF, Beim Schlass",BESCHL01,busStation,49.8765131358348,6.22131000442952,979
30,92340101,RGTR,"DIEKIRCH, Bei der Tirelbaach",DITIRE01,busStation,49.8644019744427,6.17471494186771,603
31,91600301,RGTR,"INGELDORF, Cactus",INCACT01,busStation,49.8511106766964,6.12627879613729,209
32,91470101,RGTR,"ERPELDANGE (ETTELBRUCK), Um Dreieck",ERUDRE01,busStation,49.8508167835115,6.11517945864097,485
